{
    "network_node_evcard": [
        {
            "address": "江苏省海门市海永镇永泰路1号",
            "n_car": "5",
            "Latitude": "31.795483",
            "MID": "3900",
            "Longitude": "121.421645",
            "UID": "2715",
            "name": "乐颐小镇"
        },
        {
            "address": "江苏省南通市海门市海永镇海长路1号",
            "n_car": "5",
            "Latitude": "31.780866",
            "MID": "2776",
            "Longitude": "121.419936",
            "UID": "2716",
            "name": "普罗旺斯大酒店"
        },
        {
            "address": "江苏省南通市海门市海永镇三厂路北50米",
            "n_car": "5",
            "Latitude": "31.822293",
            "MID": "2766",
            "Longitude": "121.391738",
            "UID": "2717",
            "name": "永临汽渡"
        },
        {
            "address": "江苏省海门市海永镇通江路100号",
            "n_car": "5",
            "Latitude": "31.78799",
            "MID": "1331",
            "Longitude": "121.42649",
            "UID": "2718",
            "name": "海永镇便民服务中心"
        },
        {
            "address": "江苏省南通市海门市海永乡海东路滨江二期5号",
            "n_car": "5",
            "Latitude": "31.788983",
            "MID": "2320",
            "Longitude": "121.430034",
            "UID": "2719",
            "name": "滨江小区"
        },
        {
            "address": "江苏省南通市海门市海永乡永兴西路长征农场北首",
            "n_car": "5",
            "Latitude": "31.784621",
            "MID": "2322",
            "Longitude": "121.418912",
            "UID": "2720",
            "name": "绿岛江湾城"
        },
        {
            "address": "江苏省海门市海永镇三厂路16号",
            "n_car": "5",
            "Latitude": "31.79142",
            "MID": "1293",
            "Longitude": "121.42369",
            "UID": "2721",
            "name": "联想新城"
        }
    ]
}