{
    "network_node_evcard": [
        {
            "address": "忻州市忻府区团结东路18号",
            "n_car": "2",
            "Latitude": "38.435081",
            "MID": "4767",
            "Longitude": "112.766808",
            "UID": "4",
            "name": "创奇学校内部"
        },
        {
            "address": "山西省忻州市忻府区牧马北路七号",
            "n_car": "5",
            "Latitude": "38.43057",
            "MID": "4236",
            "Longitude": "112.69266",
            "UID": "5",
            "name": "创腾商贸"
        },
        {
            "address": "合索乡北合索村千亩大棚实验园区",
            "n_car": "6",
            "Latitude": "38.471739",
            "MID": "4737",
            "Longitude": "112.578181",
            "UID": "6",
            "name": "北合索温泉"
        },
        {
            "address": "山西省忻州市忻府区奇村镇中心广场",
            "n_car": "5",
            "Latitude": "38.536737",
            "MID": "5371",
            "Longitude": "112.604701",
            "UID": "7",
            "name": "奇村广场"
        },
        {
            "address": "山西省忻州市忻府区奇村镇人民政府门口",
            "n_car": "3",
            "Latitude": "38.540825",
            "MID": "5372",
            "Longitude": "112.601436",
            "UID": "8",
            "name": "奇村镇政府"
        },
        {
            "address": "山西省忻州市忻府区团结东路18号",
            "n_car": "3",
            "Latitude": "38.435305",
            "MID": "4439",
            "Longitude": "112.766165",
            "UID": "9",
            "name": "山西创奇学校"
        },
        {
            "address": "山西省忻州市忻府区七一南路与利民西街交叉口西南",
            "n_car": "5",
            "Latitude": "38.419919",
            "MID": "5588",
            "Longitude": "112.724803",
            "UID": "10",
            "name": "忻州市体育场"
        },
        {
            "address": "山西省忻州市忻府区七一北路与学府街交叉口东150米",
            "n_car": "5",
            "Latitude": "38.43332",
            "MID": "5368",
            "Longitude": "112.724686",
            "UID": "11",
            "name": "忻州市供气供热管理处"
        },
        {
            "address": "山西省忻州市忻府区新建路东门",
            "n_car": "5",
            "Latitude": "38.445477",
            "MID": "4440",
            "Longitude": "112.731381",
            "UID": "12",
            "name": "忻府区人民公园"
        },
        {
            "address": "山西省忻州市忻府区顿村度假路2号",
            "n_car": "5",
            "Latitude": "38.497518",
            "MID": "4792",
            "Longitude": "112.692842",
            "UID": "13",
            "name": "愉园温泉度假村"
        },
        {
            "address": "山西省忻州市忻府区开发区九源东街",
            "n_car": "3",
            "Latitude": "38.453303",
            "MID": "4781",
            "Longitude": "112.738332",
            "UID": "14",
            "name": "汉鼎酒店"
        },
        {
            "address": "山西省忻州市忻府区西张乡霸沟",
            "n_car": "3",
            "Latitude": "38.303479",
            "MID": "5049",
            "Longitude": "112.826401",
            "UID": "15",
            "name": "禹王洞"
        },
        {
            "address": "山西省忻州市忻府区新建北路与汾源街交汇处北150米路东",
            "n_car": "5",
            "Latitude": "38.456797",
            "MID": "4789",
            "Longitude": "112.73299",
            "UID": "16",
            "name": "紫檀商务酒店"
        },
        {
            "address": "山西省忻州市忻府区雁门大道与七一北路交叉口东行350米路北（雁门大道中段）",
            "n_car": "5",
            "Latitude": "38.442101",
            "MID": "4670",
            "Longitude": "112.7263",
            "UID": "17",
            "name": "蒲公英快捷酒店"
        },
        {
            "address": "山西省忻州市忻府区和平西街以北",
            "n_car": "1",
            "Latitude": "38.426781",
            "MID": "4668",
            "Longitude": "112.6959",
            "UID": "18",
            "name": "银海酒店"
        }
    ]
}