{
    "network_node_evcard": [
        {
            "address": "浙江省嘉兴市南湖区禾兴南路680号",
            "n_car": "12",
            "Latitude": "30.765455",
            "MID": "4401",
            "Longitude": "120.744219",
            "UID": "2786",
            "name": "e代商务酒店"
        },
        {
            "address": "浙江省嘉兴市南湖区七星镇兴民路345号",
            "n_car": "6",
            "Latitude": "30.813",
            "MID": "4321",
            "Longitude": "120.8247",
            "UID": "2787",
            "name": "七星卫生院"
        },
        {
            "address": "浙江省嘉兴市南湖区七星路与兴民路交叉口七星派出所内",
            "n_car": "4",
            "Latitude": "30.812494",
            "MID": "4294",
            "Longitude": "120.826213",
            "UID": "2788",
            "name": "七星派出所"
        },
        {
            "address": "浙江省嘉兴市南湖区云东路108号",
            "n_car": "4",
            "Latitude": "30.740908",
            "MID": "5467",
            "Longitude": "120.791088",
            "UID": "2789",
            "name": "世合大厦"
        },
        {
            "address": "浙江省嘉兴市南湖区余步线",
            "n_car": "10",
            "Latitude": "30.709209",
            "MID": "5874",
            "Longitude": "120.846582",
            "UID": "2790",
            "name": "世合理想大地"
        },
        {
            "address": "浙江省嘉兴市南湖区城东路158号",
            "n_car": "3",
            "Latitude": "30.767032",
            "MID": "4882",
            "Longitude": "120.757453",
            "UID": "2791",
            "name": "人民公园"
        },
        {
            "address": "浙江省嘉兴市南湖区七星镇星桥路777号",
            "n_car": "6",
            "Latitude": "30.826078",
            "MID": "5361",
            "Longitude": "120.825167",
            "UID": "2792",
            "name": "内河国际集装箱港区"
        },
        {
            "address": "浙江省嘉兴市南湖区周安路与徐王街交叉口（世纪华联超市边）",
            "n_car": "6",
            "Latitude": "30.779814",
            "MID": "4430",
            "Longitude": "120.771176",
            "UID": "2793",
            "name": "凌塘社区居委会"
        },
        {
            "address": "浙江省嘉兴市南湖区望湖路与景宜路交叉口",
            "n_car": "6",
            "Latitude": "30.751114",
            "MID": "4436",
            "Longitude": "120.780503",
            "UID": "2794",
            "name": "南湖区信访局"
        },
        {
            "address": "浙江省嘉兴市南湖区新马路15号",
            "n_car": "4",
            "Latitude": "30.768387",
            "MID": "4734",
            "Longitude": "120.753111",
            "UID": "2795",
            "name": "南湖饭店"
        },
        {
            "address": " 浙江省嘉兴市南湖区广益路总部商务花园8号楼",
            "n_car": "4",
            "Latitude": "30.739244",
            "MID": "4738",
            "Longitude": "120.816218",
            "UID": "2796",
            "name": "嘉兴华悦精品酒店"
        },
        {
            "address": "浙江省嘉兴市南湖区东升东路1436号",
            "n_car": "4",
            "Latitude": "30.776219",
            "MID": "4593",
            "Longitude": "120.741488",
            "UID": "2797",
            "name": "嘉兴嘉湖骨科医院"
        },
        {
            "address": "浙江省嘉兴市南湖区中环南路618号",
            "n_car": "6",
            "Latitude": "30.741067",
            "MID": "4881",
            "Longitude": "120.751374",
            "UID": "2798",
            "name": "嘉兴国际会展中心"
        },
        {
            "address": "浙江省嘉兴市南湖区中山东路1005号（交通大楼）",
            "n_car": "5",
            "Latitude": "30.762971",
            "MID": "4378",
            "Longitude": "120.73507",
            "UID": "2799",
            "name": "嘉兴市交通大楼"
        },
        {
            "address": "浙江省嘉兴市南湖区迎宾大道88号",
            "n_car": "6",
            "Latitude": "30.742216",
            "MID": "4560",
            "Longitude": "120.752187",
            "UID": "2800",
            "name": "嘉兴市博雅酒店"
        },
        {
            "address": "浙江省嘉兴市南湖区花园路182号",
            "n_car": "6",
            "Latitude": "30.748683",
            "MID": "4408",
            "Longitude": "120.753671",
            "UID": "2801",
            "name": "嘉兴市旅游集散中心"
        },
        {
            "address": "浙江省嘉兴市南湖区禾兴北路125号",
            "n_car": "12",
            "Latitude": "30.778236",
            "MID": "4719",
            "Longitude": "120.742574",
            "UID": "2802",
            "name": "嘉兴市青少年宫"
        },
        {
            "address": "浙江省嘉兴市南湖区府东街与县南街交叉口旁",
            "n_car": "4",
            "Latitude": "30.763875",
            "MID": "4320",
            "Longitude": "120.751159",
            "UID": "2803",
            "name": "建设街道办事处"
        },
        {
            "address": "浙江省嘉兴市南湖区新丰镇绿环生物有限公司以南120米",
            "n_car": "4",
            "Latitude": "30.678909",
            "MID": "5603",
            "Longitude": "120.910578",
            "UID": "2804",
            "name": "新中法生态农庄"
        },
        {
            "address": "浙江省嘉兴市南湖区新丰镇新荷路227号",
            "n_car": "9",
            "Latitude": "30.714367",
            "MID": "4883",
            "Longitude": "120.926646",
            "UID": "2805",
            "name": "新丰镇中学"
        },
        {
            "address": "浙江省嘉兴市南湖区双龙路1458号",
            "n_car": "9",
            "Latitude": "30.707489",
            "MID": "5199",
            "Longitude": "120.917761",
            "UID": "2806",
            "name": "新丰镇政府"
        },
        {
            "address": "浙江省嘉兴市秀洲区东升东路1889号",
            "n_car": "4",
            "Latitude": "30.773916",
            "MID": "4487",
            "Longitude": "120.733399",
            "UID": "2807",
            "name": "新嘉街道卫生服务中心"
        },
        {
            "address": "浙江省嘉兴月亮湾沙滩停车场",
            "n_car": "10",
            "Latitude": "30.812438",
            "MID": "4319",
            "Longitude": "120.809504",
            "UID": "2808",
            "name": "月亮湾沙滩"
        },
        {
            "address": "浙江省嘉兴市南湖区梅湾街东区16,17号(禾兴南路靠近环城南路)",
            "n_car": "8",
            "Latitude": "30.755627",
            "MID": "4344",
            "Longitude": "120.745916",
            "UID": "2809",
            "name": "梅湾街"
        },
        {
            "address": "浙江省嘉兴市南湖区亚太路705号",
            "n_car": "4",
            "Latitude": "30.738015",
            "MID": "4587",
            "Longitude": "120.82067",
            "UID": "2810",
            "name": "浙江清华长三角研究院"
        },
        {
            "address": "浙江省嘉兴市南湖区中环西路589号",
            "n_car": "4",
            "Latitude": "30.755478",
            "MID": "5618",
            "Longitude": "120.722085",
            "UID": "2811",
            "name": "浙江省荣军医院"
        },
        {
            "address": "浙江省嘉兴市湘溪路48号",
            "n_car": "9",
            "Latitude": "30.77127",
            "MID": "5613",
            "Longitude": "120.777828",
            "UID": "2812",
            "name": "湘城大厦"
        },
        {
            "address": "浙江省嘉兴市南湖区兴民路与桥埭路交叉口",
            "n_car": "6",
            "Latitude": "30.809496",
            "MID": "5185",
            "Longitude": "120.828336",
            "UID": "2813",
            "name": "湘家荡中心农贸市场"
        },
        {
            "address": "浙江省嘉兴市南湖区纺工路1235号",
            "n_car": "5",
            "Latitude": "30.740902",
            "MID": "5853",
            "Longitude": "120.766449",
            "UID": "2814",
            "name": "翰林府第"
        },
        {
            "address": "浙江省嘉兴市南湖区东升东路229号",
            "n_car": "8",
            "Latitude": "30.778269",
            "MID": "4429",
            "Longitude": "120.763937",
            "UID": "2815",
            "name": "解放街道办事处"
        },
        {
            "address": " 浙江省嘉兴市秀洲区洪业路228号",
            "n_car": "8",
            "Latitude": "30.749666",
            "MID": "5600",
            "Longitude": "120.673379",
            "UID": "2816",
            "name": "上海交大嘉兴科技园"
        },
        {
            "address": "浙江省嘉兴市秀洲区加创路1509号",
            "n_car": "6",
            "Latitude": "30.769705",
            "MID": "4804",
            "Longitude": "120.663982",
            "UID": "2817",
            "name": "中国节能嘉兴产业园"
        },
        {
            "address": "浙江省嘉兴市秀洲区中山西路1388号（君特酒店）",
            "n_car": "5",
            "Latitude": "30.758994",
            "MID": "4437",
            "Longitude": "120.693643",
            "UID": "2818",
            "name": "君特酒店"
        },
        {
            "address": "浙江省嘉兴市秀洲区中山西路1388号君特酒店东",
            "n_car": "5",
            "Latitude": "30.75909",
            "MID": "4491",
            "Longitude": "120.694043",
            "UID": "2819",
            "name": "君特酒店（姆妈菜）"
        },
        {
            "address": "浙江省嘉兴市秀洲区洪兴路1593",
            "n_car": "6",
            "Latitude": "30.76661",
            "MID": "5777",
            "Longitude": "120.710179",
            "UID": "2820",
            "name": "嘉兴公安局秀洲区分局"
        },
        {
            "address": "浙江省嘉兴市秀洲区新塍大道与八字路交叉口东南测",
            "n_car": "5",
            "Latitude": "30.756909",
            "MID": "5275",
            "Longitude": "120.641557",
            "UID": "2821",
            "name": "国鸿机动车检测中心"
        },
        {
            "address": "浙江省嘉兴市秀洲区昌盛中路288号",
            "n_car": "4",
            "Latitude": "30.763414",
            "MID": "5241",
            "Longitude": "120.710967",
            "UID": "2822",
            "name": "新城街道办事处"
        },
        {
            "address": "浙江省嘉兴市秀洲区新塍镇兴新路511号",
            "n_car": "10",
            "Latitude": "30.787545",
            "MID": "5599",
            "Longitude": "120.615294",
            "UID": "2823",
            "name": "新塍镇公共服务中心"
        },
        {
            "address": "浙江省嘉兴市秀洲区洪兴路2369号",
            "n_car": "5",
            "Latitude": "30.768474",
            "MID": "4773",
            "Longitude": "120.689996",
            "UID": "2824",
            "name": "浙江新安国际医院"
        },
        {
            "address": "浙江省嘉兴市秀洲区洪兴路2323号",
            "n_car": "5",
            "Latitude": "30.765475",
            "MID": "4807",
            "Longitude": "120.692123",
            "UID": "2825",
            "name": "海洲之星"
        },
        {
            "address": "浙江省嘉兴市秀洲区运河路1999号",
            "n_car": "11",
            "Latitude": "30.735546",
            "MID": "4793",
            "Longitude": "120.660385",
            "UID": "2826",
            "name": "福莱特集团"
        },
        {
            "address": "浙江省嘉兴市秀洲区九里路598号",
            "n_car": "5",
            "Latitude": "30.778203",
            "MID": "4649",
            "Longitude": "120.689239",
            "UID": "2827",
            "name": "秀洲区妇幼保健院"
        },
        {
            "address": "浙江省嘉兴市秀洲区洪兴路1765号",
            "n_car": "16",
            "Latitude": "30.767418",
            "MID": "4684",
            "Longitude": "120.706283",
            "UID": "2828",
            "name": "秀洲区政府东"
        },
        {
            "address": "浙江省嘉兴市秀洲区洪兴路1765",
            "n_car": "18",
            "Latitude": "30.767041",
            "MID": "4629",
            "Longitude": "120.703312",
            "UID": "2829",
            "name": "秀洲区政府西"
        },
        {
            "address": "浙江省嘉兴市经开区塘汇路548号",
            "n_car": "5",
            "Latitude": "30.789172",
            "MID": "5348",
            "Longitude": "120.766959",
            "UID": "2830",
            "name": "万和大厦"
        },
        {
            "address": "浙江省嘉兴市经开区鸣羊路176号",
            "n_car": "4",
            "Latitude": "30.78694",
            "MID": "5586",
            "Longitude": "120.786668",
            "UID": "2831",
            "name": "兴汇大厦"
        },
        {
            "address": "浙江省嘉兴市经开区城南路1539号",
            "n_car": "4",
            "Latitude": "30.734877",
            "MID": "5539",
            "Longitude": "120.725354",
            "UID": "2832",
            "name": "创业大厦"
        },
        {
            "address": "浙江省嘉兴市经开区中环北路1856号",
            "n_car": "4",
            "Latitude": "30.789978",
            "MID": "4628",
            "Longitude": "120.763893",
            "UID": "2833",
            "name": "北斗创客空间"
        },
        {
            "address": "浙江省嘉兴市经开区周安路399号",
            "n_car": "5",
            "Latitude": "30.782607",
            "MID": "5582",
            "Longitude": "120.779166",
            "UID": "2834",
            "name": "嘉兴中安市场"
        },
        {
            "address": "浙江省嘉兴市经开区黎明村双溪路",
            "n_car": "22",
            "Latitude": "30.694352",
            "MID": "4866",
            "Longitude": "120.798128",
            "UID": "2835",
            "name": "嘉兴南站"
        },
        {
            "address": "浙江省嘉兴市经开区南湖大道902号",
            "n_car": "6",
            "Latitude": "30.724642",
            "MID": "5528",
            "Longitude": "120.757449",
            "UID": "2836",
            "name": "嘉兴市交通投资集团"
        },
        {
            "address": "浙江省嘉兴市经开区开禧路46号",
            "n_car": "9",
            "Latitude": "30.716984",
            "MID": "4492",
            "Longitude": "120.707749",
            "UID": "2837",
            "name": "嘉兴市公路路政管理支队"
        },
        {
            "address": "浙江省嘉兴市经开区友谊街471号",
            "n_car": "6",
            "Latitude": "30.771405",
            "MID": "5325",
            "Longitude": "120.724275",
            "UID": "2838",
            "name": "嘉兴市科技馆"
        },
        {
            "address": "浙江省嘉兴市经开区双溪路1798号",
            "n_car": "20",
            "Latitude": "30.737659",
            "MID": "4860",
            "Longitude": "120.786112",
            "UID": "2839",
            "name": "嘉兴教育学院"
        },
        {
            "address": "浙江省嘉兴市经开区昌盛南路36号",
            "n_car": "10",
            "Latitude": "30.729358",
            "MID": "5585",
            "Longitude": "120.714664",
            "UID": "2840",
            "name": "嘉兴智慧产业创新园"
        },
        {
            "address": "浙江省嘉兴市经开区中环北路688号",
            "n_car": "4",
            "Latitude": "30.788057",
            "MID": "4407",
            "Longitude": "120.74146",
            "UID": "2841",
            "name": "嘉兴汽车北站"
        },
        {
            "address": "浙江省嘉兴市经开区中环南路999号",
            "n_car": "3",
            "Latitude": "30.737032",
            "MID": "5408",
            "Longitude": "120.80673",
            "UID": "2842",
            "name": "嘉兴汽车商贸园"
        },
        {
            "address": "浙江省嘉兴市经开区万国路2098号",
            "n_car": "4",
            "Latitude": "30.712971",
            "MID": "4486",
            "Longitude": "120.703093",
            "UID": "2843",
            "name": "嘉兴汽车客运中心"
        },
        {
            "address": "浙江省嘉兴市文昌路与梁林路交汇处南",
            "n_car": "6",
            "Latitude": "30.751037",
            "MID": "5817",
            "Longitude": "120.706516",
            "UID": "2844",
            "name": "嘉兴秀水高级中学"
        },
        {
            "address": "浙江省嘉兴市经开区东升西路1号",
            "n_car": "8",
            "Latitude": "30.777908",
            "MID": "5584",
            "Longitude": "120.720945",
            "UID": "2845",
            "name": "嘉北街道办事处"
        },
        {
            "address": "浙江省嘉兴市振兴路484号",
            "n_car": "3",
            "Latitude": "30.788565",
            "MID": "5135",
            "Longitude": "120.71605",
            "UID": "2846",
            "name": "嘉北街道卫生服务中心"
        },
        {
            "address": "浙江省嘉兴市经开区桐乡大道2600号",
            "n_car": "9",
            "Latitude": "30.726702",
            "MID": "4431",
            "Longitude": "120.67052",
            "UID": "2847",
            "name": "嘉心菜有机农业示范园"
        },
        {
            "address": "浙江省嘉兴市经开区昌盛东路1666号",
            "n_car": "5",
            "Latitude": "30.802898",
            "MID": "5935",
            "Longitude": "120.778257",
            "UID": "2848",
            "name": "圆通古寺"
        },
        {
            "address": "浙江省嘉兴市经开区万历路138号",
            "n_car": "4",
            "Latitude": "30.741824",
            "MID": "5984",
            "Longitude": "120.724933",
            "UID": "2849",
            "name": "城南街道卫生服务中心"
        },
        {
            "address": "浙江省嘉兴市经开区茶园路95号",
            "n_car": "5",
            "Latitude": "30.79392",
            "MID": "5583",
            "Longitude": "120.773121",
            "UID": "2850",
            "name": "塘汇街道办事处"
        },
        {
            "address": "浙江省嘉兴市经开区塘汇路1262号",
            "n_car": "3",
            "Latitude": "30.796317",
            "MID": "5983",
            "Longitude": "120.779178",
            "UID": "2851",
            "name": "塘汇街道卫生服务中心"
        },
        {
            "address": "浙江省嘉兴市经开区洪兴西路1399号",
            "n_car": "5",
            "Latitude": "30.766582",
            "MID": "5739",
            "Longitude": "120.712686",
            "UID": "2852",
            "name": "大洋洲假日酒店"
        },
        {
            "address": "浙江省嘉兴市经开区创新路与展望路交叉口南150米",
            "n_car": "5",
            "Latitude": "30.728399",
            "MID": "4809",
            "Longitude": "120.727525",
            "UID": "2853",
            "name": "姚家荡公园"
        },
        {
            "address": "浙江省嘉兴市经开区振兴路777号",
            "n_car": "4",
            "Latitude": "30.791068",
            "MID": "5875",
            "Longitude": "120.715455",
            "UID": "2854",
            "name": "振兴公寓"
        },
        {
            "address": "浙江省嘉兴市经开区南湖大道与长水路交叉口",
            "n_car": "8",
            "Latitude": "30.722857",
            "MID": "4869",
            "Longitude": "120.754573",
            "UID": "2855",
            "name": "晶晖广场"
        },
        {
            "address": "浙江省嘉兴市经开区洪波路友谊街交叉口",
            "n_car": "5",
            "Latitude": "30.772874",
            "MID": "5418",
            "Longitude": "120.727049",
            "UID": "2856",
            "name": "洪波公园"
        },
        {
            "address": "浙江省嘉兴市经开区周安路1059号",
            "n_car": "8",
            "Latitude": "30.788562",
            "MID": "5355",
            "Longitude": "120.788628",
            "UID": "2857",
            "name": "浙江嘉信医药公司"
        },
        {
            "address": "浙江省嘉兴市经开区凯旋路217号",
            "n_car": "5",
            "Latitude": "30.764595",
            "MID": "5773",
            "Longitude": "120.724262",
            "UID": "2858",
            "name": "玫瑰湾大酒店"
        },
        {
            "address": "浙江省嘉兴市经开区商务大道1310",
            "n_car": "4",
            "Latitude": "30.717089",
            "MID": "4956",
            "Longitude": "120.778536",
            "UID": "2859",
            "name": "石堰农贸市场"
        },
        {
            "address": "浙江省嘉兴市经开区禾平街358号",
            "n_car": "6",
            "Latitude": "30.799258",
            "MID": "5934",
            "Longitude": "120.731061",
            "UID": "2860",
            "name": "禾平街标准厂房"
        },
        {
            "address": "浙江省嘉兴市经开区和风路1229号",
            "n_car": "5",
            "Latitude": "30.797874",
            "MID": "5581",
            "Longitude": "120.778702",
            "UID": "2861",
            "name": "禾新农贸市场"
        },
        {
            "address": "浙江省嘉兴市经开区由拳路309号",
            "n_car": "4",
            "Latitude": "30.734792",
            "MID": "5536",
            "Longitude": "120.731652",
            "UID": "2862",
            "name": "紫御大厦"
        },
        {
            "address": "浙江省嘉兴市经开区新气象路618号",
            "n_car": "9",
            "Latitude": "30.740097",
            "MID": "5417",
            "Longitude": "120.749452",
            "UID": "2863",
            "name": "美厨大酒店"
        },
        {
            "address": "浙江省嘉兴市经开区区长水街道办事处门口公园停车场",
            "n_car": "8",
            "Latitude": "30.729797",
            "MID": "4890",
            "Longitude": "120.752456",
            "UID": "2864",
            "name": "长水街道办事处"
        },
        {
            "address": "浙江省嘉兴市云海路107号",
            "n_car": "3",
            "Latitude": "30.797525",
            "MID": "5210",
            "Longitude": "120.735389",
            "UID": "2865",
            "name": "阳海社区便民服务中心"
        },
        {
            "address": "浙江省嘉兴市经开区新气象路与马塘路交叉口",
            "n_car": "4",
            "Latitude": "30.720113",
            "MID": "5541",
            "Longitude": "120.748235",
            "UID": "2866",
            "name": "隆兴农贸市场"
        }
    ]
}