{
    "network_node_evcard": [
        {
            "MID": "4682",
            "name": "(内部限制）高速交警",
            "address": "浙江省丽水市莲都区西站路95号丽水市高速交警支队",
            "Longitude": "119.880357",
            "Latitude": "28.448841",
            "n_car": "3",
            "UID": "2946"
        },
        {
            "MID": "3472",
            "name": "万象山天主教堂",
            "address": "浙江省丽水市莲都区括苍路685号万象山天主教堂",
            "Longitude": "119.90645",
            "Latitude": "28.44664",
            "n_car": "6",
            "UID": "2947"
        },
        {
            "MID": "3969",
            "name": "下南山文化礼堂",
            "address": "浙江省丽水市S328公路边下南山村文化礼堂门口",
            "Longitude": "119.796494",
            "Latitude": "28.339282",
            "n_car": "4",
            "UID": "2948"
        },
        {
            "MID": "1140",
            "name": "下圳村",
            "address": "浙江省丽水市莲都区碧湖镇下圳村",
            "Longitude": "119.81581",
            "Latitude": "28.42494",
            "n_car": "5",
            "UID": "2949"
        },
        {
            "MID": "1061",
            "name": "东苑小区",
            "address": "浙江省丽水市莲都区长虹街南门口",
            "Longitude": "119.9312",
            "Latitude": "28.45749",
            "n_car": "4",
            "UID": "2950"
        },
        {
            "MID": "314",
            "name": "东西岩景区",
            "address": "浙江省丽水市莲都区老竹畲族镇的虎迹溪畔",
            "Longitude": "119.725671",
            "Latitude": "28.521881",
            "n_car": "10",
            "UID": "2951"
        },
        {
            "MID": "2764",
            "name": "丽华小区",
            "address": "浙江省丽水市丽华小区北门",
            "Longitude": "119.92454",
            "Latitude": "28.44483",
            "n_car": "6",
            "UID": "2952"
        },
        {
            "MID": "1084",
            "name": "丽新乡政府",
            "address": "浙江省丽水市莲都区丽新乡畎岸村丽新乡政府",
            "Longitude": "119.69661",
            "Latitude": "28.48164",
            "n_car": "4",
            "UID": "2953"
        },
        {
            "MID": "1000",
            "name": "丽新乡畎岸村",
            "address": "浙江省丽水市莲都区丽新乡畎岸村乡政府河对面",
            "Longitude": "119.69503",
            "Latitude": "28.48234",
            "n_car": "4",
            "UID": "2954"
        },
        {
            "MID": "3478",
            "name": "丽水中学",
            "address": "浙江省丽水市寿尔福北路1号丽水中学",
            "Longitude": "119.92632",
            "Latitude": "28.47782",
            "n_car": "10",
            "UID": "2955"
        },
        {
            "MID": "4383",
            "name": "丽水工业区欧意阀门",
            "address": "浙江省丽水市莲都区碧湖镇欧意阀门",
            "Longitude": "119.771907",
            "Latitude": "28.348371",
            "n_car": "10",
            "UID": "2956"
        },
        {
            "MID": "2248",
            "name": "丽水工业园区管委会",
            "address": "浙江省丽水市莲都区丽水工业园区管委会",
            "Longitude": "119.79274",
            "Latitude": "28.33887",
            "n_car": "14",
            "UID": "2957"
        },
        {
            "MID": "4382",
            "name": "丽水工业园恒大科技",
            "address": "浙江省丽水市莲都区碧湖镇恒大科技",
            "Longitude": "119.76781",
            "Latitude": "28.341432",
            "n_car": "10",
            "UID": "2958"
        },
        {
            "MID": "1742",
            "name": "丽水市国土局",
            "address": "浙江省丽水市莲都区人民街539号",
            "Longitude": "119.91591",
            "Latitude": "28.46812",
            "n_car": "8",
            "UID": "2959"
        },
        {
            "MID": "3624",
            "name": "丽水市国税局",
            "address": "浙江省丽水市莲都区中山街207号丽水市国税局",
            "Longitude": "119.90839",
            "Latitude": "28.46258",
            "n_car": "7",
            "UID": "2960"
        },
        {
            "MID": "2822",
            "name": "丽水市建设局",
            "address": "浙江省丽水市城东路99号",
            "Longitude": "119.911918",
            "Latitude": "28.455331",
            "n_car": "6",
            "UID": "2961"
        },
        {
            "MID": "537",
            "name": "丽水市政府",
            "address": "浙江省丽水市莲都区花园路1号（近城北街）",
            "Longitude": "119.92",
            "Latitude": "28.471",
            "n_car": "12",
            "UID": "2962"
        },
        {
            "MID": "2444",
            "name": "丽水市救助站",
            "address": "浙江省丽水市莲都区救助站",
            "Longitude": "119.939416",
            "Latitude": "28.470036",
            "n_car": "6",
            "UID": "2963"
        },
        {
            "MID": "3693",
            "name": "丽水市物流储备中心",
            "address": "浙江省丽水市莲都区高铁站物流储备中心",
            "Longitude": "119.954465",
            "Latitude": "28.446526",
            "n_car": "5",
            "UID": "2964"
        },
        {
            "MID": "3475",
            "name": "丽水市第二人民医院",
            "address": "浙江省丽水市花街文教卫区块丽水市第二人民医院",
            "Longitude": "119.88057",
            "Latitude": "28.4876",
            "n_car": "10",
            "UID": "2965"
        },
        {
            "MID": "3230",
            "name": "丽水市青少年宫",
            "address": "浙江省丽水市莲都区大猷街34号",
            "Longitude": "119.92203",
            "Latitude": "28.43971",
            "n_car": "11",
            "UID": "2966"
        },
        {
            "MID": "316",
            "name": "丽水高铁站",
            "address": "浙江省丽水市莲都区水东路",
            "Longitude": "119.94771",
            "Latitude": "28.44527",
            "n_car": "10",
            "UID": "2967"
        },
        {
            "MID": "1065",
            "name": "丽阳门公园",
            "address": "浙江省丽水市莲都区罗马步行街与城东路交叉口",
            "Longitude": "119.91138",
            "Latitude": "28.45734",
            "n_car": "5",
            "UID": "2968"
        },
        {
            "MID": "312",
            "name": "九龙湿地公园",
            "address": "浙江省丽水市莲都区碧湖镇",
            "Longitude": "119.813191",
            "Latitude": "28.373868",
            "n_car": "12",
            "UID": "2969"
        },
        {
            "MID": "1059",
            "name": "人民路公园",
            "address": "浙江省丽水市莲都区人民路347号（近白云路）",
            "Longitude": "119.91137",
            "Latitude": "28.46469",
            "n_car": "6",
            "UID": "2970"
        },
        {
            "MID": "1120",
            "name": "仙渡乡政府",
            "address": "浙江省丽水市莲都区仙渡乡政府",
            "Longitude": "119.91626",
            "Latitude": "28.58795",
            "n_car": "6",
            "UID": "2971"
        },
        {
            "MID": "2756",
            "name": "仙渡乡梅田村",
            "address": "浙江省丽水市仙渡乡梅田村",
            "Longitude": "119.902549",
            "Latitude": "28.560209",
            "n_car": "6",
            "UID": "2972"
        },
        {
            "MID": "313",
            "name": "利山村",
            "address": "浙江省丽水市莲都区大港头镇畲族村",
            "Longitude": "119.77891",
            "Latitude": "28.284968",
            "n_car": "10",
            "UID": "2973"
        },
        {
            "MID": "3921",
            "name": "南明山公园",
            "address": "浙江省丽水市莲都区南明山公园",
            "Longitude": "119.904175",
            "Latitude": "28.43648",
            "n_car": "6",
            "UID": "2974"
        },
        {
            "MID": "1122",
            "name": "双溪村",
            "address": "浙江省丽水市莲都区雅溪镇双溪村车站西面",
            "Longitude": "119.87044",
            "Latitude": "28.59094",
            "n_car": "7",
            "UID": "2975"
        },
        {
            "MID": "310",
            "name": "古堰画乡保定停车场",
            "address": "浙江省丽水市莲都区222省道",
            "Longitude": "119.732666",
            "Latitude": "28.304968",
            "n_car": "13",
            "UID": "2976"
        },
        {
            "MID": "311",
            "name": "古堰画乡堰头停车场",
            "address": "浙江省丽水市莲都区222省道",
            "Longitude": "119.72891",
            "Latitude": "28.307768",
            "n_car": "7",
            "UID": "2977"
        },
        {
            "MID": "1268",
            "name": "周坦村村委会",
            "address": "浙江省丽水市莲都区老竹镇周坦村村委会",
            "Longitude": "119.75654",
            "Latitude": "28.49144",
            "n_car": "6",
            "UID": "2978"
        },
        {
            "MID": "2724",
            "name": "和家园小区",
            "address": "浙江省丽水市和家园小区南门",
            "Longitude": "119.92531",
            "Latitude": "28.47337",
            "n_car": "6",
            "UID": "2979"
        },
        {
            "MID": "4913",
            "name": "培红幼儿园",
            "address": "浙江省丽水市莲都区囿山路14号培红幼儿园",
            "Longitude": "119.91277",
            "Latitude": "28.44584",
            "n_car": "6",
            "UID": "2980"
        },
        {
            "MID": "3621",
            "name": "处州中学",
            "address": "浙江省丽水市莲都区卢镗街153号处州中学南面停车场",
            "Longitude": "119.91345",
            "Latitude": "28.44367",
            "n_car": "8",
            "UID": "2981"
        },
        {
            "MID": "3632",
            "name": "大港头便民服务中心",
            "address": "浙江省丽水市莲都区大港头镇大大线与53省道交叉路口",
            "Longitude": "119.749406",
            "Latitude": "28.297744",
            "n_car": "10",
            "UID": "2982"
        },
        {
            "MID": "3865",
            "name": "大港头镇供电所",
            "address": "浙江省丽水市莲都区大港头镇供电所营业厅南门",
            "Longitude": "119.74301",
            "Latitude": "28.29665",
            "n_car": "3",
            "UID": "2983"
        },
        {
            "MID": "3622",
            "name": "大港头镇在水一方",
            "address": "浙江省丽水市莲都区大港头镇在水一方",
            "Longitude": "119.74889",
            "Latitude": "28.29924",
            "n_car": "9",
            "UID": "2984"
        },
        {
            "MID": "2354",
            "name": "大港头镇政府",
            "address": "浙江省丽水市莲都区大港头镇政府北面",
            "Longitude": "119.74857",
            "Latitude": "28.29881",
            "n_car": "13",
            "UID": "2985"
        },
        {
            "MID": "2514",
            "name": "太平乡政府",
            "address": "浙江省丽水市莲都区太平乡政府",
            "Longitude": "119.860236",
            "Latitude": "28.528713",
            "n_car": "12",
            "UID": "2986"
        },
        {
            "MID": "1011",
            "name": "威尼斯咖啡",
            "address": "浙江省丽水市莲都区大猷街56号（近寿尔福路）",
            "Longitude": "119.93144",
            "Latitude": "28.44173",
            "n_car": "10",
            "UID": "2987"
        },
        {
            "MID": "1185",
            "name": "小山村村委会",
            "address": "浙江省丽水市莲都区大港头镇小山村",
            "Longitude": "119.7507",
            "Latitude": "28.27405",
            "n_car": "4",
            "UID": "2988"
        },
        {
            "MID": "1269",
            "name": "山根村村委会",
            "address": "浙江省丽水市莲都区碧湖镇山根村村委会旁",
            "Longitude": "119.77973",
            "Latitude": "28.39988",
            "n_car": "5",
            "UID": "2989"
        },
        {
            "MID": "1186",
            "name": "山水嘉苑",
            "address": "浙江省丽水市莲都区山水嘉苑北面十字路口",
            "Longitude": "119.91374",
            "Latitude": "28.47834",
            "n_car": "6",
            "UID": "2990"
        },
        {
            "MID": "1107",
            "name": "岩泉余岭古道",
            "address": "浙江省丽水市莲都区岩泉余岭村",
            "Longitude": "119.94624",
            "Latitude": "28.54096",
            "n_car": "4",
            "UID": "2991"
        },
        {
            "MID": "1013",
            "name": "岩泉余岭路口",
            "address": "浙江省丽水市莲都区岩泉余岭路口三三零国道",
            "Longitude": "119.946308",
            "Latitude": "28.530617",
            "n_car": "4",
            "UID": "2992"
        },
        {
            "MID": "1001",
            "name": "岩泉叶平头村",
            "address": "浙江省丽水市莲都区岩泉街道叶平头村",
            "Longitude": "119.976666",
            "Latitude": "28.5325",
            "n_car": "4",
            "UID": "2993"
        },
        {
            "MID": "992",
            "name": "岩泉街道办事处",
            "address": "浙江省丽水市莲都区丽阳街1089号岩泉街道办事处（近开发路）",
            "Longitude": "119.93651",
            "Latitude": "28.46936",
            "n_car": "4",
            "UID": "2994"
        },
        {
            "MID": "3623",
            "name": "峰源乡政府",
            "address": "浙江省丽水市莲都区峰源乡政府",
            "Longitude": "119.79199",
            "Latitude": "28.20084",
            "n_car": "8",
            "UID": "2995"
        },
        {
            "MID": "3232",
            "name": "应星楼",
            "address": "浙江省丽水市莲都区大猷街瓯江滨江景区应星楼北面",
            "Longitude": "119.91427",
            "Latitude": "28.43944",
            "n_car": "8",
            "UID": "2996"
        },
        {
            "MID": "4663",
            "name": "御泉湾",
            "address": "浙江省丽水市莲都区碧湖镇白桥村88号御泉湾",
            "Longitude": "119.809887",
            "Latitude": "28.414605",
            "n_car": "10",
            "UID": "2997"
        },
        {
            "MID": "1064",
            "name": "接官亭小区",
            "address": "浙江省丽水市莲都区大洋北路587号附近",
            "Longitude": "119.91263",
            "Latitude": "28.46882",
            "n_car": "6",
            "UID": "2998"
        },
        {
            "MID": "3476",
            "name": "新屋村村委会",
            "address": "浙江省丽水市莲都区老竹镇新屋村",
            "Longitude": "119.73767",
            "Latitude": "28.55218",
            "n_car": "6",
            "UID": "2999"
        },
        {
            "MID": "4917",
            "name": "普明成套公司",
            "address": "浙江省丽水市莲都区文一路631号普明成套公司",
            "Longitude": "119.77414",
            "Latitude": "28.33876",
            "n_car": "8",
            "UID": "3000"
        },
        {
            "MID": "1002",
            "name": "松坑口村",
            "address": "浙江省丽水市莲都区三二八省道松坑口村",
            "Longitude": "119.811555",
            "Latitude": "28.355916",
            "n_car": "6",
            "UID": "3001"
        },
        {
            "MID": "1124",
            "name": "枫树湾村村委会",
            "address": "浙江省丽水市莲都区岩泉街道枫树湾村",
            "Longitude": "119.95669",
            "Latitude": "28.50138",
            "n_car": "4",
            "UID": "3002"
        },
        {
            "MID": "1066",
            "name": "欧景园",
            "address": "浙江省丽水市莲都区江滨路",
            "Longitude": "119.94245",
            "Latitude": "28.45336",
            "n_car": "6",
            "UID": "3003"
        },
        {
            "MID": "2746",
            "name": "正达阳光城",
            "address": "浙江省丽水市正达阳光城东南面",
            "Longitude": "119.92559",
            "Latitude": "28.46129",
            "n_car": "7",
            "UID": "3004"
        },
        {
            "MID": "5936",
            "name": "正阳电力建设公司",
            "address": "浙江省丽水市碧湖镇南山工业园区南山路573号",
            "Longitude": "119.798095",
            "Latitude": "28.342521",
            "n_car": "7",
            "UID": "3005"
        },
        {
            "MID": "2448",
            "name": "民俗乐园东门",
            "address": "浙江省丽水市莲都区民俗乐园东门寿尔福路129号",
            "Longitude": "119.93",
            "Latitude": "28.461111",
            "n_car": "6",
            "UID": "3006"
        },
        {
            "MID": "3625",
            "name": "水东小学",
            "address": "浙江省丽水市莲都区水东小学水东路与金东路交叉路口",
            "Longitude": "119.9511",
            "Latitude": "28.45195",
            "n_car": "10",
            "UID": "3007"
        },
        {
            "MID": "2260",
            "name": "水东旱闸",
            "address": "浙江省丽水市莲都区水东大桥底好溪路与丽青路交叉路口",
            "Longitude": "119.941666",
            "Latitude": "28.449166",
            "n_car": "6",
            "UID": "3008"
        },
        {
            "MID": "3868",
            "name": "水利工程管理公司",
            "address": "浙江省丽水市莲都区岩泉街道凉塘村286号北面停车场",
            "Longitude": "119.939655",
            "Latitude": "28.466609",
            "n_car": "12",
            "UID": "3009"
        },
        {
            "MID": "1069",
            "name": "水木清华幼儿园",
            "address": "浙江省丽水市莲都区机关第二幼儿园水木清华分园",
            "Longitude": "119.91489",
            "Latitude": "28.47512",
            "n_car": "6",
            "UID": "3010"
        },
        {
            "MID": "5928",
            "name": "瓯江生态旅游管委会",
            "address": "浙江省丽水市莲都区大猷街60号",
            "Longitude": "119.933961",
            "Latitude": "28.442468",
            "n_car": "7",
            "UID": "3011"
        },
        {
            "MID": "4874",
            "name": "畲坑村养心谷",
            "address": "浙江省丽水市莲都区碧湖镇畲坑村内",
            "Longitude": "119.721887",
            "Latitude": "28.318515",
            "n_car": "6",
            "UID": "3012"
        },
        {
            "MID": "1062",
            "name": "白云街道办事处",
            "address": "浙江省丽水市莲都区文进路白云街道办事处",
            "Longitude": "119.90135",
            "Latitude": "28.45968",
            "n_car": "4",
            "UID": "3013"
        },
        {
            "MID": "1750",
            "name": "碧湖双眼塘停车场",
            "address": "浙江省丽水市莲都区碧湖镇双眼塘停车场",
            "Longitude": "119.78284",
            "Latitude": "28.34252",
            "n_car": "12",
            "UID": "3014"
        },
        {
            "MID": "3968",
            "name": "碧湖镇下南山村",
            "address": "浙江省丽水市下南山S328国道边南福太电机电器门口",
            "Longitude": "119.796492",
            "Latitude": "28.338893",
            "n_car": "6",
            "UID": "3015"
        },
        {
            "MID": "3869",
            "name": "碧湖镇审批中心",
            "address": "浙江省丽水市莲都区碧湖镇审批中心",
            "Longitude": "119.778181",
            "Latitude": "28.348117",
            "n_car": "10",
            "UID": "3016"
        },
        {
            "MID": "1752",
            "name": "碧湖镇红圩村",
            "address": "浙江省丽水市莲都区桃碧线红圩村",
            "Longitude": "119.82049",
            "Latitude": "28.38819",
            "n_car": "8",
            "UID": "3017"
        },
        {
            "MID": "3870",
            "name": "碧湖镇缸瑶村",
            "address": "浙江省丽水市莲都区碧湖镇缸瑶村南面停车场靠近53省道",
            "Longitude": "119.77336",
            "Latitude": "28.386",
            "n_car": "10",
            "UID": "3018"
        },
        {
            "MID": "1037",
            "name": "碧湖镇郎奇村",
            "address": "浙江省丽水市莲都区碧湖镇郎奇村",
            "Longitude": "119.79695",
            "Latitude": "28.40894",
            "n_car": "6",
            "UID": "3019"
        },
        {
            "MID": "1320",
            "name": "紫金街道办事处",
            "address": "浙江省丽水市莲都区紫金街道办事处停车场",
            "Longitude": "119.9172",
            "Latitude": "28.44919",
            "n_car": "7",
            "UID": "3020"
        },
        {
            "MID": "3620",
            "name": "纳爱斯广场",
            "address": "浙江省丽水市莲都区中东路19号纳爱斯广场门口",
            "Longitude": "119.91323",
            "Latitude": "28.45337",
            "n_car": "4",
            "UID": "3021"
        },
        {
            "MID": "3480",
            "name": "纳爱斯绿谷庄园",
            "address": "浙江省丽水市莲都区紫金北路纳爱斯绿谷庄园",
            "Longitude": "119.920452",
            "Latitude": "28.479202",
            "n_car": "6",
            "UID": "3022"
        },
        {
            "MID": "3867",
            "name": "绿谷信息产业园南门",
            "address": "浙江省丽水市括苍路与城北路交叉口西南角欧微大厦",
            "Longitude": "119.899159",
            "Latitude": "28.467554",
            "n_car": "8",
            "UID": "3023"
        },
        {
            "MID": "3866",
            "name": "绿谷信息产业园西门",
            "address": "浙江省丽水市括苍路与城北路交叉口西南角欧微大厦",
            "Longitude": "119.900437",
            "Latitude": "28.469628",
            "n_car": "8",
            "UID": "3024"
        },
        {
            "MID": "1141",
            "name": "老竹镇政府",
            "address": "浙江省丽水市莲都区老竹镇政府",
            "Longitude": "119.73726",
            "Latitude": "28.51282",
            "n_car": "5",
            "UID": "3025"
        },
        {
            "MID": "2818",
            "name": "联城小学",
            "address": "浙江省丽水市莲都区联城小学南面",
            "Longitude": "119.85022",
            "Latitude": "28.470125",
            "n_car": "11",
            "UID": "3026"
        },
        {
            "MID": "1036",
            "name": "联城瑶畈黄村",
            "address": "浙江省丽水市莲都区联城街道瑶畈黄村",
            "Longitude": "119.75798",
            "Latitude": "28.4729",
            "n_car": "6",
            "UID": "3027"
        },
        {
            "MID": "2820",
            "name": "联城街道九坑村",
            "address": "浙江省丽水市莲都区联城街道九坑村口",
            "Longitude": "119.823753",
            "Latitude": "28.505172",
            "n_car": "5",
            "UID": "3028"
        },
        {
            "MID": "1894",
            "name": "联城街道办事处",
            "address": "浙江省丽水市莲都区联城街道办事处",
            "Longitude": "119.85207",
            "Latitude": "28.4654",
            "n_car": "10",
            "UID": "3029"
        },
        {
            "MID": "3474",
            "name": "联城街道戏毛弄",
            "address": "浙江省丽水市莲都区联城街道戏毛弄",
            "Longitude": "119.82883",
            "Latitude": "28.44909",
            "n_car": "5",
            "UID": "3030"
        },
        {
            "MID": "407",
            "name": "联城街道港口村",
            "address": "浙江省丽水市莲都区桃碧线",
            "Longitude": "119.816229",
            "Latitude": "28.441934",
            "n_car": "10",
            "UID": "3031"
        },
        {
            "MID": "3473",
            "name": "联城街道苏埠村",
            "address": "浙江省丽水市莲都区联城街道苏埠村",
            "Longitude": "119.82894",
            "Latitude": "28.44921",
            "n_car": "5",
            "UID": "3032"
        },
        {
            "MID": "2152",
            "name": "茶来茶往停车场",
            "address": "浙江省丽水市莲都区花园路420号和丽青路交叉路口停车场",
            "Longitude": "119.92037",
            "Latitude": "28.45694",
            "n_car": "10",
            "UID": "3033"
        },
        {
            "MID": "1060",
            "name": "莲城剧院",
            "address": "浙江省丽水市莲都区紫金路473号（近解放街）",
            "Longitude": "119.92569",
            "Latitude": "28.45169",
            "n_car": "4",
            "UID": "3034"
        },
        {
            "MID": "1748",
            "name": "莲城宾馆",
            "address": "浙江省丽水市莲都区丽阳街254号",
            "Longitude": "119.90364",
            "Latitude": "28.45609",
            "n_car": "6",
            "UID": "3035"
        },
        {
            "MID": "2250",
            "name": "莲都区人民法院",
            "address": "浙江省丽水市莲都区括苍路123号",
            "Longitude": "119.90328",
            "Latitude": "28.4596",
            "n_car": "6",
            "UID": "3036"
        },
        {
            "MID": "993",
            "name": "莲都区公安分局",
            "address": "浙江省丽水市莲都区紫金路36号（近丽阳街）",
            "Longitude": "119.92629",
            "Latitude": "28.4626",
            "n_car": "7",
            "UID": "3037"
        },
        {
            "MID": "315",
            "name": "莲都区办事中心",
            "address": "浙江省丽水市莲都区丽青路25号",
            "Longitude": "119.912814",
            "Latitude": "28.457847",
            "n_car": "10",
            "UID": "3038"
        },
        {
            "MID": "1067",
            "name": "莲都区建设分局",
            "address": "浙江省丽水市莲都区城北街439号（近大洋路）",
            "Longitude": "119.91251",
            "Latitude": "28.47171",
            "n_car": "6",
            "UID": "3039"
        },
        {
            "MID": "1068",
            "name": "莲都区总工会",
            "address": "浙江省丽水市莲都区大洋路126号",
            "Longitude": "119.91412",
            "Latitude": "28.46294",
            "n_car": "5",
            "UID": "3040"
        },
        {
            "MID": "317",
            "name": "莲都区政府",
            "address": "浙江省丽水市莲都区解放街51号",
            "Longitude": "119.908159",
            "Latitude": "28.449015",
            "n_car": "15",
            "UID": "3041"
        },
        {
            "MID": "1063",
            "name": "莲都区教育局",
            "address": "浙江省丽水市莲都区教育局",
            "Longitude": "119.93027",
            "Latitude": "28.47589",
            "n_car": "5",
            "UID": "3042"
        },
        {
            "MID": "2760",
            "name": "莲都区环卫局",
            "address": "浙江省丽水市莲都区环卫局北门",
            "Longitude": "119.94898",
            "Latitude": "28.47784",
            "n_car": "10",
            "UID": "3043"
        },
        {
            "MID": "1114",
            "name": "西坑口村",
            "address": "浙江省丽水市莲都区大大线西坑口村",
            "Longitude": "119.76921",
            "Latitude": "28.26486",
            "n_car": "6",
            "UID": "3044"
        },
        {
            "MID": "1242",
            "name": "西溪村村委会",
            "address": "浙江省丽水市莲都区雅溪镇西溪村村委会南面",
            "Longitude": "119.86923",
            "Latitude": "28.64081",
            "n_car": "6",
            "UID": "3045"
        },
        {
            "MID": "1012",
            "name": "近水楼台茶楼",
            "address": "浙江省丽水市莲都区大猷街3号（近括仓街）",
            "Longitude": "119.90597",
            "Latitude": "28.44478",
            "n_car": "8",
            "UID": "3046"
        },
        {
            "MID": "3479",
            "name": "里东村村委会",
            "address": "浙江省丽水市莲都区外敦线雅溪镇里东村",
            "Longitude": "119.90736",
            "Latitude": "28.64862",
            "n_car": "5",
            "UID": "3047"
        },
        {
            "MID": "3477",
            "name": "陶村村委会",
            "address": "浙江省丽水市莲都区老竹镇陶村",
            "Longitude": "119.73876",
            "Latitude": "28.53904",
            "n_car": "8",
            "UID": "3048"
        },
        {
            "MID": "1123",
            "name": "雅溪镇政府",
            "address": "浙江省丽水市莲都区雅溪镇政府",
            "Longitude": "119.87165",
            "Latitude": "28.5892",
            "n_car": "5",
            "UID": "3049"
        },
        {
            "MID": "3252",
            "name": "香蜜园",
            "address": "浙江省丽水市莲都区丽阳街1299号东门",
            "Longitude": "119.9482",
            "Latitude": "28.47928",
            "n_car": "10",
            "UID": "3050"
        },
        {
            "MID": "1121",
            "name": "黄村乡政府",
            "address": "浙江省丽水市莲都区黄村乡",
            "Longitude": "120.04763",
            "Latitude": "28.51007",
            "n_car": "6",
            "UID": "3051"
        },
        {
            "MID": "2824",
            "name": "黄村乡黄泥墩村",
            "address": "浙江省丽水市莲都区黄村乡黄泥墩村",
            "Longitude": "120.018194",
            "Latitude": "28.496332",
            "n_car": "6",
            "UID": "3052"
        },
        {
            "MID": "2442",
            "name": "（内部限制）莲都区政府大院",
            "address": "浙江省丽水市莲都区政府院内",
            "Longitude": "119.908068",
            "Latitude": "28.450082",
            "n_car": "3",
            "UID": "3053"
        },
        {
            "MID": "4923",
            "name": "青田交警大队",
            "address": "浙江省丽水市青田县水南村头2号",
            "Longitude": "120.271863",
            "Latitude": "28.148663",
            "n_car": "10",
            "UID": "3054"
        },
        {
            "MID": "5337",
            "name": "青田县人防大楼",
            "address": "浙江省丽水市青田县人防大楼后方停车场鹤城东路与塔山路",
            "Longitude": "120.296785",
            "Latitude": "28.133326",
            "n_car": "10",
            "UID": "3055"
        },
        {
            "MID": "5137",
            "name": "青田县审批中心",
            "address": "浙江省丽水市青田县230省道附近青田县审批中心",
            "Longitude": "120.297213",
            "Latitude": "28.124291",
            "n_car": "10",
            "UID": "3056"
        },
        {
            "MID": "4631",
            "name": "青田县政府",
            "address": "浙江省丽水市青田县鹤城中路33号青田县人民政府内部停车场",
            "Longitude": "120.284452",
            "Latitude": "28.141928",
            "n_car": "4",
            "UID": "3057"
        },
        {
            "MID": "5597",
            "name": "青田县油竹巴黎花园",
            "address": "浙江省丽水市青田县油竹街道潘桥街与青岱路交叉口东30米",
            "Longitude": "120.314821",
            "Latitude": "28.104813",
            "n_car": "8",
            "UID": "3058"
        },
        {
            "MID": "5058",
            "name": "青田县瓯南街道办事处",
            "address": "浙江省丽水市青田县伯温东路瓯南街道办事处",
            "Longitude": "120.277917",
            "Latitude": "28.137048",
            "n_car": "5",
            "UID": "3059"
        },
        {
            "MID": "5061",
            "name": "青田县瓯江大厦",
            "address": "浙江省丽水市青田县瓯中街84号青田瓯江大厦",
            "Longitude": "120.272076",
            "Latitude": "28.145013",
            "n_car": "10",
            "UID": "3060"
        },
        {
            "MID": "4872",
            "name": "青田县青田中学",
            "address": "浙江省丽水市青田县青田中学",
            "Longitude": "120.313923",
            "Latitude": "28.109802",
            "n_car": "10",
            "UID": "3061"
        },
        {
            "MID": "4635",
            "name": "青田县高铁站北面",
            "address": "浙江省丽水市青田县江南大道139-6号青田高铁站",
            "Longitude": "120.276172",
            "Latitude": "28.140962",
            "n_car": "8",
            "UID": "3062"
        },
        {
            "MID": "4630",
            "name": "青田县高铁站南面",
            "address": "浙江省丽水市青田县江南大道139-6号",
            "Longitude": "120.276719",
            "Latitude": "28.140047",
            "n_car": "8",
            "UID": "3063"
        },
        {
            "MID": "3926",
            "name": "缙云中学游泳池",
            "address": "浙江省丽水市缙云县缙云中学",
            "Longitude": "120.06891",
            "Latitude": "28.65987",
            "n_car": "5",
            "UID": "3064"
        },
        {
            "MID": "4650",
            "name": "缙云仙都街道办事处",
            "address": "浙江省丽水市缙云县鼎湖大道仙都街道办事处",
            "Longitude": "120.123115",
            "Latitude": "28.700596",
            "n_car": "5",
            "UID": "3065"
        },
        {
            "MID": "3925",
            "name": "缙云县七里乡政府",
            "address": "浙江省丽水市缙云县七里乡政府",
            "Longitude": "120.0577",
            "Latitude": "28.68369",
            "n_car": "6",
            "UID": "3066"
        },
        {
            "MID": "4089",
            "name": "缙云县华强路停车场",
            "address": "浙江省丽水市缙云县壶镇华强路16号华强路停车场",
            "Longitude": "120.23196",
            "Latitude": "28.80789",
            "n_car": "6",
            "UID": "3067"
        },
        {
            "MID": "4087",
            "name": "缙云县壶镇安居公园",
            "address": "浙江省丽水市缙云县壶镇安居公园南门",
            "Longitude": "120.25372",
            "Latitude": "28.81192",
            "n_car": "8",
            "UID": "3068"
        },
        {
            "MID": "4088",
            "name": "缙云县壶镇安居桥",
            "address": "浙江省丽水市缙云县壶镇安居桥溪西大街55号",
            "Longitude": "120.24963",
            "Latitude": "28.81349",
            "n_car": "6",
            "UID": "3069"
        },
        {
            "MID": "3927",
            "name": "缙云县政府",
            "address": "浙江省丽水市缙云县政府（近彩云路）",
            "Longitude": "120.08781",
            "Latitude": "28.66264",
            "n_car": "6",
            "UID": "3070"
        },
        {
            "MID": "4830",
            "name": "缙云县政府西停车场",
            "address": "浙江省丽水市缙云县政府西侧停车场独峰路与黄龙路交叉口",
            "Longitude": "120.085084",
            "Latitude": "28.66196",
            "n_car": "12",
            "UID": "3071"
        },
        {
            "MID": "4537",
            "name": "缙云县新建国土大楼",
            "address": "浙江省丽水市缙云县新建国土资源局",
            "Longitude": "120.026808",
            "Latitude": "28.724841",
            "n_car": "8",
            "UID": "3072"
        },
        {
            "MID": "4536",
            "name": "缙云县新碧十八坊",
            "address": "浙江省丽水市缙云县新碧镇十八坊农家大院停车场",
            "Longitude": "120.082868",
            "Latitude": "28.753479",
            "n_car": "7",
            "UID": "3073"
        },
        {
            "MID": "3924",
            "name": "缙云县滨江公园",
            "address": "浙江省丽水市缙云县滨江花园",
            "Longitude": "120.08207",
            "Latitude": "28.65329",
            "n_car": "10",
            "UID": "3074"
        },
        {
            "MID": "3923",
            "name": "缙云县火车站",
            "address": "浙江省丽水市缙云县仙都路1号缙云火车站",
            "Longitude": "120.09044",
            "Latitude": "28.66344",
            "n_car": "10",
            "UID": "3075"
        },
        {
            "MID": "5173",
            "name": "缙云县笕川花海",
            "address": "浙江省丽水市缙云县新建镇笕川村笕川花海",
            "Longitude": "120.04723",
            "Latitude": "28.725212",
            "n_car": "8",
            "UID": "3076"
        },
        {
            "MID": "4633",
            "name": "缙云县香溢大酒店",
            "address": "浙江省丽水市缙云县五云镇仙都路99号香溢大酒店",
            "Longitude": "120.090772",
            "Latitude": "28.661472",
            "n_car": "9",
            "UID": "3077"
        },
        {
            "MID": "4090",
            "name": "缙云县黄龙寺北",
            "address": "浙江省丽水市缙云县缙云县黄龙寺北面",
            "Longitude": "120.06548",
            "Latitude": "28.7122",
            "n_car": "8",
            "UID": "3078"
        },
        {
            "MID": "4091",
            "name": "缙云县黄龙寺南",
            "address": "浙江省丽水市缙云县缙云县黄龙寺南面",
            "Longitude": "120.06553",
            "Latitude": "28.71177",
            "n_car": "8",
            "UID": "3079"
        },
        {
            "MID": "4651",
            "name": "缙云新碧街道办事处",
            "address": "浙江省丽水市缙云县新碧街道新华西路69号",
            "Longitude": "120.077111",
            "Latitude": "28.75422",
            "n_car": "6",
            "UID": "3080"
        },
        {
            "MID": "4937",
            "name": "遂昌公园路延伸段",
            "address": "浙江省丽水市遂昌县公园路延伸段中国稠州银行门口靠左侧",
            "Longitude": "119.27129",
            "Latitude": "28.59176",
            "n_car": "6",
            "UID": "3081"
        },
        {
            "MID": "4756",
            "name": "遂昌农办停车场",
            "address": "浙江省丽水市遂昌县妙高街道北街246号遂昌农办停车场",
            "Longitude": "119.26677",
            "Latitude": "28.59928",
            "n_car": "10",
            "UID": "3082"
        },
        {
            "MID": "4757",
            "name": "遂昌县体育馆",
            "address": "浙江省丽水市遂昌县上南门路6号遂昌县体育馆",
            "Longitude": "119.26991",
            "Latitude": "28.58678",
            "n_car": "10",
            "UID": "3083"
        },
        {
            "MID": "5161",
            "name": "遂昌县凯兴花园",
            "address": "浙江省丽水市遂昌县上南门路大毛头村凯兴花园门口",
            "Longitude": "119.27505",
            "Latitude": "28.57979",
            "n_car": "10",
            "UID": "3084"
        },
        {
            "MID": "5152",
            "name": "遂昌县南尖岩景区",
            "address": "浙江省丽水市遂昌县王村口镇石笋头村南尖岩景区停车场",
            "Longitude": "119.082414",
            "Latitude": "28.36708",
            "n_car": "13",
            "UID": "3085"
        },
        {
            "MID": "4944",
            "name": "遂昌发改局",
            "address": "浙江省丽水市遂昌县平昌路258号",
            "Longitude": "119.28055",
            "Latitude": "28.60198",
            "n_car": "8",
            "UID": "3086"
        },
        {
            "MID": "4935",
            "name": "遂昌梅溪小学门口",
            "address": "浙江省丽水市遂昌县龙谷路352号遂昌梅溪小学门口",
            "Longitude": "119.25214",
            "Latitude": "28.60677",
            "n_car": "8",
            "UID": "3087"
        },
        {
            "MID": "4754",
            "name": "遂昌汤公园7号停车场",
            "address": "浙江省丽水市遂昌县政府广场对面汤公园7号停车场内",
            "Longitude": "119.2736",
            "Latitude": "28.59325",
            "n_car": "10",
            "UID": "3088"
        },
        {
            "MID": "5154",
            "name": "遂昌神龙谷停车场",
            "address": "浙江省丽水市遂昌县神龙谷景区停车场对面",
            "Longitude": "119.13016",
            "Latitude": "28.35331",
            "n_car": "10",
            "UID": "3089"
        },
        {
            "MID": "4947",
            "name": "遂昌西街35弄",
            "address": "浙江省丽水市遂昌县西街383号(西街35弄弄口)",
            "Longitude": "119.2633",
            "Latitude": "28.58729",
            "n_car": "6",
            "UID": "3090"
        },
        {
            "MID": "4940",
            "name": "遂昌西街四弄停车场",
            "address": "浙江省丽水市遂昌县公园路140号西街四弄停车场",
            "Longitude": "119.26882",
            "Latitude": "28.59181",
            "n_car": "8",
            "UID": "3091"
        },
        {
            "MID": "4398",
            "name": "三都乡酉田村",
            "address": "浙江省丽水市松阳县三都乡酉田村停车场",
            "Longitude": "119.55146",
            "Latitude": "28.46693",
            "n_car": "6",
            "UID": "3092"
        },
        {
            "MID": "5587",
            "name": "古市横街四村办公楼",
            "address": "浙江省丽水市松阳县古市镇横街四村办公楼门口",
            "Longitude": "119.401137",
            "Latitude": "28.529881",
            "n_car": "5",
            "UID": "3093"
        },
        {
            "MID": "4404",
            "name": "叶村乡政府",
            "address": "浙江省丽水市松阳县江南公路香菇市场停车场南面（叶村乡政府旁）",
            "Longitude": "119.45557",
            "Latitude": "28.44316",
            "n_car": "10",
            "UID": "3094"
        },
        {
            "MID": "4400",
            "name": "四都乡寨头",
            "address": "浙江省丽水市松阳县四都客运站北面",
            "Longitude": "119.51803",
            "Latitude": "28.52159",
            "n_car": "6",
            "UID": "3095"
        },
        {
            "MID": "4399",
            "name": "四都乡西坑",
            "address": "浙江省丽水市松阳县四都乡西坑村村口停车场",
            "Longitude": "119.510764",
            "Latitude": "28.518171",
            "n_car": "4",
            "UID": "3096"
        },
        {
            "MID": "4160",
            "name": "大木山停车场",
            "address": "浙江省丽水市松阳县大木山新游客中心南面停车场",
            "Longitude": "119.37308",
            "Latitude": "28.53875",
            "n_car": "8",
            "UID": "3097"
        },
        {
            "MID": "4289",
            "name": "天元唯家酒店停车场",
            "address": "浙江省丽水市松阳县长松路天元唯家酒店东面停车场",
            "Longitude": "119.49607",
            "Latitude": "28.44775",
            "n_car": "10",
            "UID": "3098"
        },
        {
            "MID": "4291",
            "name": "屏安路停车位",
            "address": "浙江省丽水市松阳县屏安路青龙村综合楼西面停车位",
            "Longitude": "119.48341",
            "Latitude": "28.43552",
            "n_car": "10",
            "UID": "3099"
        },
        {
            "MID": "3890",
            "name": "平田村",
            "address": "浙江省丽水市松阳县四都乡平田村",
            "Longitude": "119.53198",
            "Latitude": "28.52943",
            "n_car": "3",
            "UID": "3100"
        },
        {
            "MID": "4403",
            "name": "新兴镇政府",
            "address": "浙江省丽水市松阳县江南公路新兴镇委院内停车场",
            "Longitude": "119.36948",
            "Latitude": "28.54214",
            "n_car": "10",
            "UID": "3101"
        },
        {
            "MID": "3955",
            "name": "新华路地下停车场",
            "address": "浙江省丽水市松阳县新华路地下停车场",
            "Longitude": "119.47867",
            "Latitude": "28.45363",
            "n_car": "10",
            "UID": "3102"
        },
        {
            "MID": "4405",
            "name": "新天地停车场",
            "address": "浙江省丽水市松阳县大马公路新天地KTV停车场",
            "Longitude": "119.46585",
            "Latitude": "28.46422",
            "n_car": "5",
            "UID": "3103"
        },
        {
            "MID": "4924",
            "name": "松阳县三都乡人民政府",
            "address": "浙江省丽水市松阳县三都乡政府院内停车场",
            "Longitude": "119.5774",
            "Latitude": "28.47508",
            "n_car": "5",
            "UID": "3104"
        },
        {
            "MID": "3885",
            "name": "松阳县人民医院",
            "address": "浙江省丽水市松阳县人民医院",
            "Longitude": "119.49467",
            "Latitude": "28.44907",
            "n_car": "10",
            "UID": "3105"
        },
        {
            "MID": "3886",
            "name": "松阳县会议中心",
            "address": "浙江省丽水市松阳县会议中心",
            "Longitude": "119.4742",
            "Latitude": "28.45126",
            "n_car": "10",
            "UID": "3106"
        },
        {
            "MID": "4925",
            "name": "松阳县四都乡人民政府",
            "address": "浙江省丽水市松阳县四都乡人民政府北面停车场",
            "Longitude": "119.52262",
            "Latitude": "28.50857",
            "n_car": "6",
            "UID": "3107"
        },
        {
            "MID": "3888",
            "name": "松阳县审批中心",
            "address": "浙江省丽水市松阳县审批中心",
            "Longitude": "119.47804",
            "Latitude": "28.45076",
            "n_car": "8",
            "UID": "3108"
        },
        {
            "MID": "3892",
            "name": "松阳县新华路停车场",
            "address": "浙江省丽水市松阳县新华路停车场",
            "Longitude": "119.47821",
            "Latitude": "28.45618",
            "n_car": "8",
            "UID": "3109"
        },
        {
            "MID": "4922",
            "name": "松阳县民族中学停车场",
            "address": "浙江省丽水市松阳县育英路民族中学门口停车场",
            "Longitude": "119.49702",
            "Latitude": "28.45505",
            "n_car": "10",
            "UID": "3110"
        },
        {
            "MID": "3884",
            "name": "松阳县环城西路停车场",
            "address": "浙江省丽水市松阳县环城西路停车场",
            "Longitude": "119.47707",
            "Latitude": "28.45342",
            "n_car": "10",
            "UID": "3111"
        },
        {
            "MID": "3893",
            "name": "松阳县第五中学",
            "address": "浙江省丽水市松阳县江南公路南第五中学",
            "Longitude": "119.47776",
            "Latitude": "28.43202",
            "n_car": "10",
            "UID": "3112"
        },
        {
            "MID": "3889",
            "name": "桃花源小区",
            "address": "浙江省丽水市松阳县桃花源小区",
            "Longitude": "119.48772",
            "Latitude": "28.44145",
            "n_car": "8",
            "UID": "3113"
        },
        {
            "MID": "4402",
            "name": "樟溪乡政府",
            "address": "浙江省丽水市松阳县樟溪乡人民政府院内停车场",
            "Longitude": "119.38989",
            "Latitude": "28.50031",
            "n_car": "6",
            "UID": "3114"
        },
        {
            "MID": "3887",
            "name": "界首村",
            "address": "浙江省丽水市松阳县界首村",
            "Longitude": "119.34251",
            "Latitude": "28.57788",
            "n_car": "8",
            "UID": "3115"
        },
        {
            "MID": "3891",
            "name": "象溪一村",
            "address": "浙江省丽水市松阳县象溪一村",
            "Longitude": "119.60503",
            "Latitude": "28.37419",
            "n_car": "10",
            "UID": "3116"
        },
        {
            "MID": "4290",
            "name": "黄家大院停车场",
            "address": "浙江省丽水市松阳县望松乡黄家大院西面停车场",
            "Longitude": "119.46697",
            "Latitude": "28.47966",
            "n_car": "10",
            "UID": "3117"
        },
        {
            "MID": "5570",
            "name": "云和体育场路42号",
            "address": "浙江省丽水市云和县体育场路青柳面馆42号马路边",
            "Longitude": "119.55821",
            "Latitude": "28.112318",
            "n_car": "8",
            "UID": "3118"
        },
        {
            "MID": "4798",
            "name": "云和前巷小区",
            "address": "浙江省丽水市云和县（解放东路）前巷小区北区1幢16号马路边",
            "Longitude": "119.568533",
            "Latitude": "28.113761",
            "n_car": "7",
            "UID": "3119"
        },
        {
            "MID": "3605",
            "name": "云和县人民检察院",
            "address": "浙江省云和县新建南路279号云和县人民检察院",
            "Longitude": "119.566867",
            "Latitude": "28.103404",
            "n_car": "10",
            "UID": "3120"
        },
        {
            "MID": "5571",
            "name": "云和县地方税务局",
            "address": "浙江省丽水市云和县地方税务局旁边（公安路）马路边",
            "Longitude": "119.570866",
            "Latitude": "28.117582",
            "n_car": "6",
            "UID": "3121"
        },
        {
            "MID": "3108",
            "name": "云和县政府大院",
            "address": "浙江省丽水市云和县城北路6号（近人民路府东路）",
            "Longitude": "119.568137",
            "Latitude": "28.119988",
            "n_car": "10",
            "UID": "3122"
        },
        {
            "MID": "4797",
            "name": "云和县石塘镇政府",
            "address": "浙江省云和县石塘镇政府正门朝328省道公路边",
            "Longitude": "119.673358",
            "Latitude": "28.241973",
            "n_car": "10",
            "UID": "3123"
        },
        {
            "MID": "4796",
            "name": "云和县石塘高速出口",
            "address": "浙江省丽水市云和县石塘镇高速出口",
            "Longitude": "119.67092",
            "Latitude": "28.240073",
            "n_car": "10",
            "UID": "3124"
        },
        {
            "MID": "5569",
            "name": "云和县紧水滩接待中心",
            "address": "浙江省丽水市云和县紧水滩镇旅游接待中心停车场",
            "Longitude": "119.533838",
            "Latitude": "28.204745",
            "n_car": "7",
            "UID": "3125"
        },
        {
            "MID": "4795",
            "name": "云和县行政审批中心",
            "address": "浙江省丽水市云和县体育馆行政审批中心（南山路）",
            "Longitude": "119.569892",
            "Latitude": "28.110241",
            "n_car": "8",
            "UID": "3126"
        },
        {
            "MID": "5572",
            "name": "云和工业区管委会",
            "address": "浙江省丽水市云和县（中山西路）工业区管委会对面马路边",
            "Longitude": "119.55559",
            "Latitude": "28.1118",
            "n_car": "6",
            "UID": "3127"
        },
        {
            "MID": "4799",
            "name": "云和涌金花苑",
            "address": "浙江省丽水市云和县新华街涌金花苑2幢对面",
            "Longitude": "119.57002",
            "Latitude": "28.11533",
            "n_car": "8",
            "UID": "3128"
        },
        {
            "MID": "4794",
            "name": "云和诚创轴承公司",
            "address": "浙江省丽水市云和县诚创轴承公司277号门口马路边",
            "Longitude": "119.54802",
            "Latitude": "28.10612",
            "n_car": "8",
            "UID": "3129"
        },
        {
            "MID": "3607",
            "name": "普光寺",
            "address": "浙江省云和县城西路农民公寓对面",
            "Longitude": "119.552885",
            "Latitude": "28.11353",
            "n_car": "16",
            "UID": "3130"
        },
        {
            "MID": "3604",
            "name": "杨柳河工业区",
            "address": "浙江省云和县杨柳河路三木玩具厂对面",
            "Longitude": "119.559898",
            "Latitude": "28.089407",
            "n_car": "16",
            "UID": "3131"
        },
        {
            "MID": "3920",
            "name": "中国青瓷小镇",
            "address": "浙江省丽水市龙泉市中国青瓷小镇",
            "Longitude": "118.872301",
            "Latitude": "27.979805",
            "n_car": "8",
            "UID": "3132"
        },
        {
            "MID": "3918",
            "name": "八都玉园广场",
            "address": "浙江省丽水市龙泉市八都镇玉园广场",
            "Longitude": "118.928652",
            "Latitude": "27.986276",
            "n_car": "10",
            "UID": "3133"
        },
        {
            "MID": "3510",
            "name": "德光滨江花园南门",
            "address": "浙江省丽水市龙泉市江滨北路德光滨江花园",
            "Longitude": "119.133271",
            "Latitude": "28.070689",
            "n_car": "5",
            "UID": "3134"
        },
        {
            "MID": "3628",
            "name": "滨江一号",
            "address": "浙江省龙泉市江滨南路滨江一号对面（近剑木路）",
            "Longitude": "119.11477",
            "Latitude": "28.072478",
            "n_car": "12",
            "UID": "3135"
        },
        {
            "MID": "3919",
            "name": "白云岩景区",
            "address": "浙江省丽水市龙泉市白云岩风景区",
            "Longitude": "119.093278",
            "Latitude": "28.103522",
            "n_car": "10",
            "UID": "3136"
        },
        {
            "MID": "3633",
            "name": "老人民医院停车场",
            "address": "浙江省龙泉市中山西路老人民医院（近公园路）",
            "Longitude": "119.122065",
            "Latitude": "28.076237",
            "n_car": "6",
            "UID": "3137"
        },
        {
            "MID": "3630",
            "name": "荷花塘邮政储蓄",
            "address": "浙江省龙泉市新华街64号中国邮政储蓄（近贤良路）",
            "Longitude": "119.12626",
            "Latitude": "28.075475",
            "n_car": "6",
            "UID": "3138"
        },
        {
            "MID": "3514",
            "name": "龙泉国际大酒店",
            "address": "浙江省丽水市龙泉市剑池东路29号（近剑川大道）",
            "Longitude": "119.131612",
            "Latitude": "28.068457",
            "n_car": "8",
            "UID": "3139"
        },
        {
            "MID": "3629",
            "name": "龙泉大酒店",
            "address": "浙江省龙泉市新华街龙泉大酒店（近中山东路）",
            "Longitude": "119.127291",
            "Latitude": "28.075996",
            "n_car": "6",
            "UID": "3140"
        },
        {
            "MID": "4832",
            "name": "龙泉宝溪乡接待中心",
            "address": "浙江省龙泉市宝溪乡溪头村接待中心",
            "Longitude": "118.759981",
            "Latitude": "28.004177",
            "n_car": "17",
            "UID": "3141"
        },
        {
            "MID": "3631",
            "name": "龙泉市交警大队",
            "address": "浙江省龙泉市53省道交警大队",
            "Longitude": "119.125484",
            "Latitude": "28.05305",
            "n_car": "8",
            "UID": "3142"
        },
        {
            "MID": "3516",
            "name": "龙泉市体育馆",
            "address": "浙江省丽水市龙泉市环城东路126号龙泉体育馆北侧（近贤良路）",
            "Longitude": "119.139147",
            "Latitude": "28.077952",
            "n_car": "8",
            "UID": "3143"
        },
        {
            "MID": "5932",
            "name": "龙泉市兰巨乡政府",
            "address": "浙江省丽水市龙泉市五梅垟路13号兰巨乡人民政府",
            "Longitude": "119.089451",
            "Latitude": "27.992568",
            "n_car": "16",
            "UID": "3144"
        },
        {
            "MID": "3960",
            "name": "龙泉市华楼街美一角",
            "address": "浙江省丽水市龙泉市华楼街美一角",
            "Longitude": "119.128691",
            "Latitude": "28.072804",
            "n_car": "7",
            "UID": "3145"
        },
        {
            "MID": "3511",
            "name": "龙泉市博物馆",
            "address": "浙江省丽水市龙泉市剑川大道青瓷博物馆",
            "Longitude": "119.129143",
            "Latitude": "28.058433",
            "n_car": "10",
            "UID": "3146"
        },
        {
            "MID": "3512",
            "name": "龙泉市客运中心",
            "address": "浙江省丽水市龙泉市松溪弄299号",
            "Longitude": "119.10863",
            "Latitude": "28.057302",
            "n_car": "8",
            "UID": "3147"
        },
        {
            "MID": "3513",
            "name": "龙泉市工业区管委会",
            "address": "浙江省丽水市龙泉经济开发区管理委员会 ",
            "Longitude": "119.116286",
            "Latitude": "28.060983",
            "n_car": "10",
            "UID": "3148"
        },
        {
            "MID": "3515",
            "name": "龙泉市市场监管局",
            "address": "浙江省丽水市龙泉市龙渊街道华楼街395号（近后沙路）",
            "Longitude": "119.143192",
            "Latitude": "28.076587",
            "n_car": "8",
            "UID": "3149"
        },
        {
            "MID": "3471",
            "name": "龙泉市政府",
            "address": "浙江省丽水市龙泉市龙翔路人民政府",
            "Longitude": "119.134912",
            "Latitude": "28.077828",
            "n_car": "8",
            "UID": "3150"
        }
    ]
}