{
    "network_node_evcard": [
        {
            "MID": "4767",
            "name": "创奇学校内部",
            "address": "忻州市忻府区团结东路18号",
            "Longitude": "112.766808",
            "Latitude": "38.435081",
            "n_car": "2",
            "UID": "4"
        },
        {
            "MID": "4236",
            "name": "创腾商贸",
            "address": "山西省忻州市忻府区牧马北路七号",
            "Longitude": "112.69266",
            "Latitude": "38.43057",
            "n_car": "5",
            "UID": "5"
        },
        {
            "MID": "4737",
            "name": "北合索温泉",
            "address": "合索乡北合索村千亩大棚实验园区",
            "Longitude": "112.578181",
            "Latitude": "38.471739",
            "n_car": "6",
            "UID": "6"
        },
        {
            "MID": "5371",
            "name": "奇村广场",
            "address": "山西省忻州市忻府区奇村镇中心广场",
            "Longitude": "112.604701",
            "Latitude": "38.536737",
            "n_car": "5",
            "UID": "7"
        },
        {
            "MID": "5372",
            "name": "奇村镇政府",
            "address": "山西省忻州市忻府区奇村镇人民政府门口",
            "Longitude": "112.601436",
            "Latitude": "38.540825",
            "n_car": "3",
            "UID": "8"
        },
        {
            "MID": "4439",
            "name": "山西创奇学校",
            "address": "山西省忻州市忻府区团结东路18号",
            "Longitude": "112.766165",
            "Latitude": "38.435305",
            "n_car": "3",
            "UID": "9"
        },
        {
            "MID": "5588",
            "name": "忻州市体育场",
            "address": "山西省忻州市忻府区七一南路与利民西街交叉口西南",
            "Longitude": "112.724803",
            "Latitude": "38.419919",
            "n_car": "5",
            "UID": "10"
        },
        {
            "MID": "5368",
            "name": "忻州市供气供热管理处",
            "address": "山西省忻州市忻府区七一北路与学府街交叉口东150米",
            "Longitude": "112.724686",
            "Latitude": "38.43332",
            "n_car": "5",
            "UID": "11"
        },
        {
            "MID": "4440",
            "name": "忻府区人民公园",
            "address": "山西省忻州市忻府区新建路东门",
            "Longitude": "112.731381",
            "Latitude": "38.445477",
            "n_car": "5",
            "UID": "12"
        },
        {
            "MID": "4792",
            "name": "愉园温泉度假村",
            "address": "山西省忻州市忻府区顿村度假路2号",
            "Longitude": "112.692842",
            "Latitude": "38.497518",
            "n_car": "5",
            "UID": "13"
        },
        {
            "MID": "4781",
            "name": "汉鼎酒店",
            "address": "山西省忻州市忻府区开发区九源东街",
            "Longitude": "112.738332",
            "Latitude": "38.453303",
            "n_car": "3",
            "UID": "14"
        },
        {
            "MID": "5049",
            "name": "禹王洞",
            "address": "山西省忻州市忻府区西张乡霸沟",
            "Longitude": "112.826401",
            "Latitude": "38.303479",
            "n_car": "3",
            "UID": "15"
        },
        {
            "MID": "4789",
            "name": "紫檀商务酒店",
            "address": "山西省忻州市忻府区新建北路与汾源街交汇处北150米路东",
            "Longitude": "112.73299",
            "Latitude": "38.456797",
            "n_car": "5",
            "UID": "16"
        },
        {
            "MID": "4670",
            "name": "蒲公英快捷酒店",
            "address": "山西省忻州市忻府区雁门大道与七一北路交叉口东行350米路北（雁门大道中段）",
            "Longitude": "112.7263",
            "Latitude": "38.442101",
            "n_car": "5",
            "UID": "17"
        },
        {
            "MID": "4668",
            "name": "银海酒店",
            "address": "山西省忻州市忻府区和平西街以北",
            "Longitude": "112.6959",
            "Latitude": "38.426781",
            "n_car": "1",
            "UID": "18"
        }
    ]
}