{
    "network_node_evcard": [
        {
            "MID": "4843",
            "name": "祥瑞苑小区",
            "address": "海南省海口市秀英区东方洋路18号",
            "Longitude": "110.28679",
            "Latitude": "20.01723",
            "n_car": "3",
            "UID": "3229"
        },
        {
            "MID": "3739",
            "name": "红燕堂酒店",
            "address": "海南省海口市秀英区红燕堂酒店",
            "Longitude": "110.20415",
            "Latitude": "20.05499",
            "n_car": "4",
            "UID": "3230"
        },
        {
            "MID": "4324",
            "name": "高新花园（东门）",
            "address": "海南省海口市秀英区永万路108号",
            "Longitude": "110.26173",
            "Latitude": "20.00126",
            "n_car": "4",
            "UID": "3231"
        },
        {
            "MID": "4323",
            "name": "高新花园（南门）",
            "address": "海南省海口市秀英区南海大道267号",
            "Longitude": "110.25954",
            "Latitude": "19.99864",
            "n_car": "4",
            "UID": "3232"
        },
        {
            "MID": "4325",
            "name": "交警队测试网点",
            "address": "海南省海口市龙华区学院路与椰海大道交叉处右转100米",
            "Longitude": "110.32565",
            "Latitude": "19.9798",
            "n_car": "4",
            "UID": "3233"
        },
        {
            "MID": "4274",
            "name": "人大会堂",
            "address": "海南省海口市滨海大道人民大会堂入口处停车场",
            "Longitude": "110.30522",
            "Latitude": "20.02929",
            "n_car": "0",
            "UID": "3234"
        },
        {
            "MID": "4277",
            "name": "冯小刚电影公社",
            "address": "海南省海口市龙华区羊山大道电影公社停车场",
            "Longitude": "110.34339",
            "Latitude": "19.919",
            "n_car": "0",
            "UID": "3235"
        },
        {
            "MID": "4100",
            "name": "喜盈门（海口）生活广场",
            "address": "海南省海口市龙华区龙昆南与椰海大道交汇处西侧",
            "Longitude": "110.33077",
            "Latitude": "19.97874",
            "n_car": "12",
            "UID": "3236"
        },
        {
            "MID": "4106",
            "name": "复兴城",
            "address": "海南省海口市龙华区滨海大道32号复兴城D3",
            "Longitude": "110.3152",
            "Latitude": "20.04007",
            "n_car": "0",
            "UID": "3237"
        },
        {
            "MID": "4705",
            "name": "复兴城（正门停车场）",
            "address": "海南省海口市龙华区滨海大道32号",
            "Longitude": "110.3136",
            "Latitude": "20.04067",
            "n_car": "10",
            "UID": "3238"
        },
        {
            "MID": "4604",
            "name": "如家酒店（滨贸路店）",
            "address": "海南省海口市龙华区滨贸路22号",
            "Longitude": "110.2953",
            "Latitude": "20.01735",
            "n_car": "6",
            "UID": "3239"
        },
        {
            "MID": "4803",
            "name": "欲庄大厦",
            "address": "海南省海口市龙华区海秀中路78号欲庄大厦一栋（金恳路佳捷精品酒店入口处右边）",
            "Longitude": "110.31716",
            "Latitude": "20.01709",
            "n_car": "4",
            "UID": "3240"
        },
        {
            "MID": "4728",
            "name": "海南关爱脑科康复医院",
            "address": "海南省海口市龙华区滨涯路14号",
            "Longitude": "110.308",
            "Latitude": "20.00376",
            "n_car": "6",
            "UID": "3241"
        },
        {
            "MID": "4840",
            "name": "海口天佑大酒店",
            "address": "海南省海口市龙华区滨海大道239号",
            "Longitude": "110.22373",
            "Latitude": "20.04238",
            "n_car": "4",
            "UID": "3242"
        },
        {
            "MID": "5524",
            "name": "盛泰佳园",
            "address": "海南省海口市龙华区海秀中路侨中里南侧盛泰佳园",
            "Longitude": "110.32143",
            "Latitude": "20.01794",
            "n_car": "6",
            "UID": "3243"
        },
        {
            "MID": "4729",
            "name": "硕博楼",
            "address": "海南省海口市龙华区学院路3号",
            "Longitude": "110.32762",
            "Latitude": "19.98659",
            "n_car": "3",
            "UID": "3244"
        },
        {
            "MID": "4194",
            "name": "观澜湖新城上东区",
            "address": "海南省海口市龙华区羊山大道39号",
            "Longitude": "110.32557",
            "Latitude": "19.92026",
            "n_car": "6",
            "UID": "3245"
        },
        {
            "MID": "4195",
            "name": "观澜湖新城石矿湖",
            "address": "海南省海口市龙华区羊山大道39号",
            "Longitude": "110.32864",
            "Latitude": "19.92024",
            "n_car": "6",
            "UID": "3246"
        },
        {
            "MID": "4802",
            "name": "霞山公寓",
            "address": "海南省海口市龙华区海秀中路103号",
            "Longitude": "110.31733",
            "Latitude": "20.01799",
            "n_car": "4",
            "UID": "3247"
        },
        {
            "MID": "4278",
            "name": "书香门第",
            "address": "海南省海口市琼山区兴丹路7号",
            "Longitude": "110.3625",
            "Latitude": "20.01422",
            "n_car": "0",
            "UID": "3248"
        },
        {
            "MID": "4238",
            "name": "儒俊雅苑",
            "address": "海南省海口市琼山区新大洲大道328号",
            "Longitude": "110.37864",
            "Latitude": "19.97558",
            "n_car": "5",
            "UID": "3249"
        },
        {
            "MID": "4322",
            "name": "喜徕丁农超综合市场",
            "address": "海南省海口市琼山区府城镇凤翔街道城南路15号",
            "Longitude": "110.3458",
            "Latitude": "19.98667",
            "n_car": "4",
            "UID": "3250"
        },
        {
            "MID": "4275",
            "name": "海南省图书馆",
            "address": "海南省海口市国兴大道36号图书馆停车场",
            "Longitude": "110.36593",
            "Latitude": "20.01778",
            "n_car": "0",
            "UID": "3251"
        },
        {
            "MID": "3735",
            "name": "琼山交警大队",
            "address": "海南省海口市龙华区学院路与椰海大道",
            "Longitude": "110.32442",
            "Latitude": "19.98026",
            "n_car": "4",
            "UID": "3252"
        },
        {
            "MID": "4239",
            "name": "碧水江畔",
            "address": "海南省海口市琼山区新大洲大道521号",
            "Longitude": "110.38556",
            "Latitude": "19.97129",
            "n_car": "5",
            "UID": "3253"
        },
        {
            "MID": "4603",
            "name": "香江豪庭",
            "address": "海南省海口市琼山区新大洲大道琼山中学旁",
            "Longitude": "110.39321",
            "Latitude": "19.96705",
            "n_car": "4",
            "UID": "3254"
        },
        {
            "MID": "4276",
            "name": "和风江岸",
            "address": "海南省海口市美兰区美祥路和风江岸铺面停车场",
            "Longitude": "110.37844",
            "Latitude": "20.02232",
            "n_car": "0",
            "UID": "3255"
        },
        {
            "MID": "3746",
            "name": "天艺滨海国际大酒店",
            "address": "海南省海口市琼山区凤翔东路与滨江路交汇处",
            "Longitude": "110.37712",
            "Latitude": "19.99567",
            "n_car": "4",
            "UID": "3256"
        },
        {
            "MID": "4073",
            "name": "天鹅湖动物乐园",
            "address": "海南省海口市美兰区桂林洋大道青春东岸东150米",
            "Longitude": "110.47781",
            "Latitude": "19.98279",
            "n_car": "4",
            "UID": "3257"
        },
        {
            "MID": "4098",
            "name": "家乐福（南亚店）",
            "address": "海南省海口市美兰区海府路18号",
            "Longitude": "110.34634",
            "Latitude": "20.03233",
            "n_car": "6",
            "UID": "3258"
        },
        {
            "MID": "3990",
            "name": "新宏兴大厦",
            "address": "海南省海口市美兰区人民大道33号",
            "Longitude": "110.33642",
            "Latitude": "20.05722",
            "n_car": "5",
            "UID": "3259"
        },
        {
            "MID": "3988",
            "name": "海岛春天",
            "address": "海南省海口市美兰区和平大道36号",
            "Longitude": "110.34258",
            "Latitude": "20.06445",
            "n_car": "3",
            "UID": "3260"
        },
        {
            "MID": "4833",
            "name": "海甸城",
            "address": "海南省海口市美兰区海甸二东路2号",
            "Longitude": "110.33931",
            "Latitude": "20.05083",
            "n_car": "4",
            "UID": "3261"
        },
        {
            "MID": "5780",
            "name": "琼山鲁能希尔顿酒店",
            "address": "海南省海口市美兰区琼山大道2号",
            "Longitude": "110.41014",
            "Latitude": "20.06198",
            "n_car": "4",
            "UID": "3262"
        },
        {
            "MID": "4438",
            "name": "石山乳羊第一家",
            "address": "海南省海口市美兰区滨江路与海府一横路交口北行300米",
            "Longitude": "110.37442",
            "Latitude": "20.03388",
            "n_car": "5",
            "UID": "3263"
        },
        {
            "MID": "4053",
            "name": "萃辰天心书院",
            "address": "海南省海口市美兰区和平大道66-58号",
            "Longitude": "110.34007",
            "Latitude": "20.07553",
            "n_car": "3",
            "UID": "3264"
        },
        {
            "MID": "3989",
            "name": "蓝天大厦",
            "address": "海南省海口市美兰区和平大道19号",
            "Longitude": "110.34489",
            "Latitude": "20.05699",
            "n_car": "4",
            "UID": "3265"
        }
    ]
}