{
    "network_node_evcard": [
        {
            "MID": "778",
            "name": "万隆度假村",
            "address": "浙江省衢州市江山市通达路1号",
            "Longitude": "118.608351",
            "Latitude": "28.71165",
            "n_car": "8",
            "UID": "2886"
        },
        {
            "MID": "1137",
            "name": "世外桃源大酒店",
            "address": "浙江省衢州市江山市双塔街道郑村官塘小区1号",
            "Longitude": "118.628736",
            "Latitude": "28.760872",
            "n_car": "8",
            "UID": "2887"
        },
        {
            "MID": "2452",
            "name": "中国电信江山分公司",
            "address": "浙江省衢州市江山市江滨四区117号",
            "Longitude": "118.638233",
            "Latitude": "28.752455",
            "n_car": "5",
            "UID": "2888"
        },
        {
            "MID": "3074",
            "name": "保安乡戴笠故居",
            "address": "浙江省衢州市江山市保安乡旅游售票处停车场",
            "Longitude": "118.517604",
            "Latitude": "28.389675",
            "n_car": "6",
            "UID": "2889"
        },
        {
            "MID": "4632",
            "name": "凤林镇政府",
            "address": "浙江省衢州市江山市凤林镇政府",
            "Longitude": "118.485155",
            "Latitude": "28.521747",
            "n_car": "6",
            "UID": "2890"
        },
        {
            "MID": "2560",
            "name": "印象江山",
            "address": "浙江省衢州市江山市凝秀南路412号",
            "Longitude": "118.628002",
            "Latitude": "28.754861",
            "n_car": "9",
            "UID": "2891"
        },
        {
            "MID": "3872",
            "name": "四都工业园区",
            "address": "浙江省江山市四都工业园区杰特厂区门口",
            "Longitude": "118.706822",
            "Latitude": "28.853393",
            "n_car": "5",
            "UID": "2892"
        },
        {
            "MID": "3126",
            "name": "四都村村部",
            "address": "浙江省衢州市江山市四都镇四都村村部",
            "Longitude": "118.687584",
            "Latitude": "28.840801",
            "n_car": "4",
            "UID": "2893"
        },
        {
            "MID": "3649",
            "name": "四都镇政府",
            "address": "浙江省江山市四都镇政府停车场（近双江线）",
            "Longitude": "118.690861",
            "Latitude": "28.839679",
            "n_car": "6",
            "UID": "2894"
        },
        {
            "MID": "4600",
            "name": "坛石镇政府",
            "address": "浙江省江山市坛石镇政府门口",
            "Longitude": "118.497533",
            "Latitude": "28.713083",
            "n_car": "4",
            "UID": "2895"
        },
        {
            "MID": "3790",
            "name": "城南初中",
            "address": "浙江省江山市城南初中门口（近山海路）",
            "Longitude": "118.60856",
            "Latitude": "28.698728",
            "n_car": "6",
            "UID": "2896"
        },
        {
            "MID": "3551",
            "name": "塘源口乡政府",
            "address": "浙江省江山市塘源口乡塘源口村部",
            "Longitude": "118.736309",
            "Latitude": "28.601013",
            "n_car": "6",
            "UID": "2897"
        },
        {
            "MID": "3394",
            "name": "大桥镇政府",
            "address": "浙江省江山市大桥镇政府大院",
            "Longitude": "118.410638",
            "Latitude": "28.740481",
            "n_car": "6",
            "UID": "2898"
        },
        {
            "MID": "2940",
            "name": "大润发北关路店",
            "address": "浙江省衢州市江山市北关路125号（近鹿溪北路）",
            "Longitude": "118.628846",
            "Latitude": "28.747993",
            "n_car": "10",
            "UID": "2899"
        },
        {
            "MID": "3817",
            "name": "大陈乡政府",
            "address": "浙江省江山市大陈乡政府门口",
            "Longitude": "118.592202",
            "Latitude": "28.822192",
            "n_car": "6",
            "UID": "2900"
        },
        {
            "MID": "3120",
            "name": "大陈汪氏宗祠",
            "address": "浙江省衢州市江山市大陈乡大陈村汪氏宗祠",
            "Longitude": "118.58998",
            "Latitude": "28.824681",
            "n_car": "14",
            "UID": "2901"
        },
        {
            "MID": "2948",
            "name": "宴遇酒店",
            "address": "浙江省衢州市江山市解放路145号（近南门路）",
            "Longitude": "118.619619",
            "Latitude": "28.732629",
            "n_car": "8",
            "UID": "2902"
        },
        {
            "MID": "2946",
            "name": "峡口电信",
            "address": "浙江省衢州市江山市迎宾中路电信营业厅（近王林线）",
            "Longitude": "118.524774",
            "Latitude": "28.47295",
            "n_car": "4",
            "UID": "2903"
        },
        {
            "MID": "2150",
            "name": "峡口镇政府",
            "address": "浙江省衢州市江山市峡口镇迎福路117号",
            "Longitude": "118.516209",
            "Latitude": "28.470191",
            "n_car": "8",
            "UID": "2904"
        },
        {
            "MID": "3072",
            "name": "峡口镇汽车站",
            "address": "浙江省衢州市江山市峡口镇兴华北街汽车站",
            "Longitude": "118.528348",
            "Latitude": "28.468366",
            "n_car": "8",
            "UID": "2905"
        },
        {
            "MID": "3914",
            "name": "峡里风大草原",
            "address": "浙江省江山市峡口镇峡里风大草原",
            "Longitude": "118.52618",
            "Latitude": "28.460584",
            "n_car": "6",
            "UID": "2906"
        },
        {
            "MID": "642",
            "name": "廿八都古镇停车场",
            "address": "浙江省衢州市江山市枫岭路",
            "Longitude": "118.48105",
            "Latitude": "28.295933",
            "n_car": "11",
            "UID": "2907"
        },
        {
            "MID": "3466",
            "name": "张村乡政府",
            "address": "浙江省江山市张村乡政府大院",
            "Longitude": "118.670546",
            "Latitude": "28.564293",
            "n_car": "4",
            "UID": "2908"
        },
        {
            "MID": "3030",
            "name": "总工会",
            "address": "浙江省衢州市江山市南门路37-11",
            "Longitude": "118.616859",
            "Latitude": "28.729498",
            "n_car": "6",
            "UID": "2909"
        },
        {
            "MID": "3118",
            "name": "成坤大厦",
            "address": "浙江省衢州市江山市成坤大厦停车场（鹿溪广场）",
            "Longitude": "118.623355",
            "Latitude": "28.731244",
            "n_car": "9",
            "UID": "2910"
        },
        {
            "MID": "3650",
            "name": "新塘边镇政府",
            "address": "浙江省江山市新塘边镇政府（近淤八线）",
            "Longitude": "118.451729",
            "Latitude": "28.614546",
            "n_car": "6",
            "UID": "2911"
        },
        {
            "MID": "3871",
            "name": "江东工业园区",
            "address": "浙江省江山市江东工业园区兴工6路",
            "Longitude": "118.722656",
            "Latitude": "28.799412",
            "n_car": "8",
            "UID": "2912"
        },
        {
            "MID": "3577",
            "name": "江山中学",
            "address": "浙江省江山市江山中学（近北环路）",
            "Longitude": "118.633524",
            "Latitude": "28.759217",
            "n_car": "8",
            "UID": "2913"
        },
        {
            "MID": "2944",
            "name": "江山体育馆",
            "address": "浙江省衢州市江山市江滨路36号（近中山路）",
            "Longitude": "118.629664",
            "Latitude": "28.740066",
            "n_car": "6",
            "UID": "2914"
        },
        {
            "MID": "4801",
            "name": "江山市交警大队",
            "address": "浙江省江山市虎山街道江滨南路交警大队",
            "Longitude": "118.619739",
            "Latitude": "28.720655",
            "n_car": "5",
            "UID": "2915"
        },
        {
            "MID": "3578",
            "name": "江山市住建局",
            "address": "浙江省江山市城中路住房和城乡建设局（近东市路）",
            "Longitude": "118.625427",
            "Latitude": "28.735656",
            "n_car": "6",
            "UID": "2916"
        },
        {
            "MID": "2418",
            "name": "江山市公安局",
            "address": "浙江省衢州市江山市环城西路147号",
            "Longitude": "118.6161",
            "Latitude": "28.733901",
            "n_car": "10",
            "UID": "2917"
        },
        {
            "MID": "2450",
            "name": "江山市国土局",
            "address": "浙江省衢州市江山市江滨路61号",
            "Longitude": "118.634729",
            "Latitude": "28.749111",
            "n_car": "6",
            "UID": "2918"
        },
        {
            "MID": "5723",
            "name": "江山市奇龙建材",
            "address": "浙江省衢州市江山市上余镇特色工业园区兴工路21号",
            "Longitude": "118.71542",
            "Latitude": "28.79505",
            "n_car": "5",
            "UID": "2919"
        },
        {
            "MID": "3791",
            "name": "江山市委党校",
            "address": "浙江省江山市党校入口（城中路）",
            "Longitude": "118.631166",
            "Latitude": "28.73351",
            "n_car": "5",
            "UID": "2920"
        },
        {
            "MID": "724",
            "name": "江山市政府",
            "address": "浙江省衢州市江山市中山路118号（近县河西路）",
            "Longitude": "118.6223",
            "Latitude": "28.741535",
            "n_car": "5",
            "UID": "2921"
        },
        {
            "MID": "3575",
            "name": "江山市文化广场",
            "address": "浙江省江山市文化广场停车场",
            "Longitude": "118.621093",
            "Latitude": "28.734648",
            "n_car": "7",
            "UID": "2922"
        },
        {
            "MID": "3579",
            "name": "江山市机关大院后院",
            "address": "浙江省江山市中山路市政府内（近县河东路）",
            "Longitude": "118.623003",
            "Latitude": "28.741986",
            "n_car": "10",
            "UID": "2923"
        },
        {
            "MID": "5718",
            "name": "江山市桃源骨科医院",
            "address": "浙江省衢州市江山市凤林镇桃源路口40号",
            "Longitude": "118.477885",
            "Latitude": "28.504041",
            "n_car": "5",
            "UID": "2924"
        },
        {
            "MID": "2482",
            "name": "江山市检察院",
            "address": "浙江省衢州市江山市江滨四区28号",
            "Longitude": "118.635783",
            "Latitude": "28.750059",
            "n_car": "6",
            "UID": "2925"
        },
        {
            "MID": "636",
            "name": "江山市金陵大酒店",
            "address": "浙江省衢州市江山市鹿溪北路298号（近江滨路）",
            "Longitude": "118.648158",
            "Latitude": "28.763481",
            "n_car": "6",
            "UID": "2926"
        },
        {
            "MID": "637",
            "name": "江山市高铁站",
            "address": "浙江省衢州市江山市环城西路",
            "Longitude": "118.639591",
            "Latitude": "28.774576",
            "n_car": "12",
            "UID": "2927"
        },
        {
            "MID": "3576",
            "name": "江山美食城",
            "address": "浙江省江山市环城西路美食城（近城中路）",
            "Longitude": "118.617161",
            "Latitude": "28.736954",
            "n_car": "8",
            "UID": "2928"
        },
        {
            "MID": "3254",
            "name": "江山职业中专",
            "address": "浙江省衢州市江山市职业中专",
            "Longitude": "118.665034",
            "Latitude": "28.793365",
            "n_car": "5",
            "UID": "2929"
        },
        {
            "MID": "659",
            "name": "江郎山风景区",
            "address": "浙江省衢州市江山市石门镇江郎乡",
            "Longitude": "118.557907",
            "Latitude": "28.546438",
            "n_car": "5",
            "UID": "2930"
        },
        {
            "MID": "3915",
            "name": "浮盖山漂流中心",
            "address": "浙江省江山市廿八都镇浮盖山漂流中心",
            "Longitude": "118.462766",
            "Latitude": "28.262193",
            "n_car": "5",
            "UID": "2931"
        },
        {
            "MID": "3393",
            "name": "淤头办事处",
            "address": "浙江省江山市贺村镇淤头办事处",
            "Longitude": "118.501827",
            "Latitude": "28.622724",
            "n_car": "5",
            "UID": "2932"
        },
        {
            "MID": "3036",
            "name": "清湖三村",
            "address": "浙江省衢州市江山市清湖镇清湖三村村部（近四六省道）",
            "Longitude": "118.598054",
            "Latitude": "28.670315",
            "n_car": "5",
            "UID": "2933"
        },
        {
            "MID": "3178",
            "name": "清湖镇政府",
            "address": "浙江省衢州市江山市清湖镇政府大院（近清湖大桥）",
            "Longitude": "118.604879",
            "Latitude": "28.67925",
            "n_car": "10",
            "UID": "2934"
        },
        {
            "MID": "3032",
            "name": "清湖高中",
            "address": "浙江省衢州市江山市清湖镇清湖高级中学（近四六省道）",
            "Longitude": "118.587907",
            "Latitude": "28.662628",
            "n_car": "5",
            "UID": "2935"
        },
        {
            "MID": "779",
            "name": "清漾旅游区",
            "address": "浙江省衢州市江山市石门镇南部",
            "Longitude": "118.579457",
            "Latitude": "28.574042",
            "n_car": "6",
            "UID": "2936"
        },
        {
            "MID": "4003",
            "name": "石门镇政府",
            "address": "浙江省江山市石门镇政府",
            "Longitude": "118.57701",
            "Latitude": "28.588285",
            "n_car": "8",
            "UID": "2937"
        },
        {
            "MID": "3034",
            "name": "碗窑乡政府",
            "address": "浙江省衢州市江山市碗窑乡政府（近江鹿线）",
            "Longitude": "118.659998",
            "Latitude": "28.692458",
            "n_car": "6",
            "UID": "2938"
        },
        {
            "MID": "3552",
            "name": "耕读农场景区",
            "address": "浙江省江山市贺村镇耕读村耕读农场停车场",
            "Longitude": "118.461133",
            "Latitude": "28.699401",
            "n_car": "15",
            "UID": "2939"
        },
        {
            "MID": "3112",
            "name": "贺村中心广场",
            "address": "浙江省衢州市江山市贺村镇贺康中心广场",
            "Longitude": "118.527326",
            "Latitude": "28.669879",
            "n_car": "6",
            "UID": "2940"
        },
        {
            "MID": "4601",
            "name": "贺村工商局",
            "address": "浙江省江山市贺村镇贺福山路工商局",
            "Longitude": "118.535899",
            "Latitude": "28.673984",
            "n_car": "5",
            "UID": "2941"
        },
        {
            "MID": "4800",
            "name": "贺村镇政府",
            "address": "浙江省衢州市江山市贺村镇贺商路贺村镇政府",
            "Longitude": "118.531049",
            "Latitude": "28.666263",
            "n_car": "5",
            "UID": "2942"
        },
        {
            "MID": "3256",
            "name": "长台镇政府",
            "address": "浙江省衢州市江山市长台镇政府",
            "Longitude": "118.630029",
            "Latitude": "28.599875",
            "n_car": "11",
            "UID": "2943"
        },
        {
            "MID": "4857",
            "name": "须江公园",
            "address": "浙江省衢州市江山市江山港东岸须江公园",
            "Longitude": "118.635783",
            "Latitude": "28.739914",
            "n_car": "8",
            "UID": "2944"
        },
        {
            "MID": "3684",
            "name": "（不开放）衢州驿动公司",
            "address": "浙江省江山市江城北路153号（近凝秀南路）",
            "Longitude": "118.622891",
            "Latitude": "28.748072",
            "n_car": "4",
            "UID": "2945"
        }
    ]
}