{
    "network_node_evcard": [
        {
            "MID": "5531",
            "name": "唐岛湾步行街停车场",
            "address": "山东省青岛市黄岛区唐岛湾公园唐岛湾景区足球场东北",
            "Longitude": "120.194211",
            "Latitude": "35.947201",
            "n_car": "0",
            "UID": "3195"
        },
        {
            "MID": "5540",
            "name": "唐岛湾滨海公园停车场",
            "address": "山东省青岛市黄岛区珠江路和漓江西路交叉口停车场",
            "Longitude": "120.178101",
            "Latitude": "35.940201",
            "n_car": "0",
            "UID": "3196"
        },
        {
            "MID": "5538",
            "name": "海云海上乐园停车场",
            "address": "山东省青岛市黄岛区漓江西路674号唐岛湾景区内",
            "Longitude": "120.184001",
            "Latitude": "35.943201",
            "n_car": "0",
            "UID": "3197"
        },
        {
            "MID": "5512",
            "name": "西海岸东部办公中心",
            "address": "山东省青岛市黄岛区西海岸长江中路369号（长白山路政府会议中心旁）",
            "Longitude": "120.195601",
            "Latitude": "35.959451",
            "n_car": "0",
            "UID": "3198"
        },
        {
            "MID": "5360",
            "name": "青岛石油大学东南门",
            "address": "青岛石油大学（东南门）黄岛区漓江西路",
            "Longitude": "120.174501",
            "Latitude": "35.938301",
            "n_car": "0",
            "UID": "3199"
        },
        {
            "MID": "5378",
            "name": "青岛黄岛区光谷软件园",
            "address": "青岛市黄岛区峨眉山路与富春江路交叉口",
            "Longitude": "120.154801",
            "Latitude": "35.950301",
            "n_car": "0",
            "UID": "3200"
        },
        {
            "MID": "5513",
            "name": "黄岛区保税区管委会",
            "address": "山东省青岛市黄岛区北京路57号",
            "Longitude": "120.173001",
            "Latitude": "35.984511",
            "n_car": "0",
            "UID": "3201"
        },
        {
            "MID": "5377",
            "name": "黄岛区名家美术馆",
            "address": "青岛市黄岛区漓江西路666号",
            "Longitude": "120.197601",
            "Latitude": "35.948421",
            "n_car": "0",
            "UID": "3202"
        },
        {
            "MID": "5510",
            "name": "黄岛区温德姆至尊酒店",
            "address": "山东省青岛市黄岛区银沙滩178号",
            "Longitude": "120.196101",
            "Latitude": "35.922735",
            "n_car": "0",
            "UID": "3203"
        },
        {
            "MID": "5515",
            "name": "黄岛区辛安街道办事处",
            "address": "山东省青岛市黄岛区黄河中路351号",
            "Longitude": "120.134461",
            "Latitude": "36.018811",
            "n_car": "0",
            "UID": "3204"
        },
        {
            "MID": "5376",
            "name": "黄岛区鲁科驾校",
            "address": "青岛市黄岛区前湾港路579号",
            "Longitude": "120.106201",
            "Latitude": "36.000881",
            "n_car": "0",
            "UID": "3205"
        },
        {
            "MID": "5529",
            "name": "黄岛唐岛湾公园停车场",
            "address": "山东省青岛市黄岛区唐岛湾景区足球场西150米",
            "Longitude": "120.191801",
            "Latitude": "35.946455",
            "n_car": "0",
            "UID": "3206"
        },
        {
            "MID": "5514",
            "name": "黄岛海尔工业园",
            "address": "山东省青岛市黄岛区海尔工业园海尔公寓附近",
            "Longitude": "120.135911",
            "Latitude": "35.998501",
            "n_car": "0",
            "UID": "3207"
        },
        {
            "MID": "5079",
            "name": "国信体育场如是书店",
            "address": "青岛银川东路3号国信体育场M区",
            "Longitude": "120.442701",
            "Latitude": "36.103501",
            "n_car": "1",
            "UID": "3208"
        },
        {
            "MID": "5375",
            "name": "海韵东方停车场",
            "address": "青岛市崂山区秦岭路15号",
            "Longitude": "120.46466",
            "Latitude": "36.09747",
            "n_car": "0",
            "UID": "3209"
        },
        {
            "MID": "5380",
            "name": "中海国际社区一里城",
            "address": "中海国际社区一里城二期南门",
            "Longitude": "120.424901",
            "Latitude": "36.149701",
            "n_car": "0",
            "UID": "3210"
        },
        {
            "MID": "5516",
            "name": "李村宝龙国际社区",
            "address": "山东省青岛市李沧区青山路699号",
            "Longitude": "120.415401",
            "Latitude": "36.149271",
            "n_car": "0",
            "UID": "3211"
        },
        {
            "MID": "5527",
            "name": "青岛万科生态城",
            "address": "山东省青岛市李沧区金水路181号",
            "Longitude": "120.481201",
            "Latitude": "36.1798",
            "n_car": "0",
            "UID": "3212"
        },
        {
            "MID": "5517",
            "name": "青岛喜华依停车场",
            "address": "山东省青岛市李沧区中崂路968号",
            "Longitude": "120.433005",
            "Latitude": "36.168156",
            "n_car": "0",
            "UID": "3213"
        },
        {
            "MID": "5373",
            "name": "青岛广业锦江大酒店",
            "address": "青岛市李沧区夏庄路68号",
            "Longitude": "120.420011",
            "Latitude": "36.163601",
            "n_car": "0",
            "UID": "3214"
        },
        {
            "MID": "5893",
            "name": "青岛第四啤酒厂",
            "address": "山东省青岛市李沧区永平路6号南门",
            "Longitude": "120.387251",
            "Latitude": "36.170121",
            "n_car": "0",
            "UID": "3215"
        },
        {
            "MID": "5393",
            "name": "城阳区国学公园",
            "address": "青岛市城阳区正阳路与烟青路交叉处",
            "Longitude": "120.438801",
            "Latitude": "36.305312",
            "n_car": "0",
            "UID": "3216"
        },
        {
            "MID": "5379",
            "name": "城阳区城中城商业街",
            "address": "青岛市城阳区兴阳路702号",
            "Longitude": "120.382801",
            "Latitude": "36.288401",
            "n_car": "0",
            "UID": "3217"
        },
        {
            "MID": "5391",
            "name": "城阳区城南社区中心",
            "address": "青岛市城阳区靖城路（与文阳路交叉口）",
            "Longitude": "120.407301",
            "Latitude": "36.292601",
            "n_car": "0",
            "UID": "3218"
        },
        {
            "MID": "4640",
            "name": "天河路停车场",
            "address": "城阳区天河路与海关路路口",
            "Longitude": "120.386601",
            "Latitude": "36.279701",
            "n_car": "1",
            "UID": "3219"
        },
        {
            "MID": "5390",
            "name": "青岛城阳百姓乐园",
            "address": "青岛市城阳区山城路188号",
            "Longitude": "120.393301",
            "Latitude": "36.29995",
            "n_car": "0",
            "UID": "3220"
        }
    ]
}