{
    "network_node_evcard": [
        {
            "MID": "5423",
            "name": "屯溪区九龙区管委会",
            "address": "黄山市屯溪区迎宾大道与045县道交叉口西北50米 ",
            "Longitude": "118.253264",
            "Latitude": "29.724296",
            "n_car": "5",
            "UID": "3170"
        },
        {
            "MID": "5422",
            "name": "屯溪区屯光镇人民政府",
            "address": "黄山市屯溪区屯光大道6号",
            "Longitude": "118.334793",
            "Latitude": "29.724554",
            "n_car": "7",
            "UID": "3171"
        },
        {
            "MID": "5367",
            "name": "屯溪区弈棋镇人民政府",
            "address": "安徽省黄山市屯溪区奕棋镇机场大道11号政府大门口",
            "Longitude": "118.25797",
            "Latitude": "29.727735",
            "n_car": "7",
            "UID": "3172"
        },
        {
            "MID": "5426",
            "name": "屯溪区林塘村村委会",
            "address": "安徽省黄山市屯溪区奕棋镇林塘村村委会（迎宾大道）",
            "Longitude": "118.241763",
            "Latitude": "29.735239",
            "n_car": "5",
            "UID": "3173"
        },
        {
            "MID": "5425",
            "name": "屯溪区查塘村村委会 ",
            "address": "安徽省黄山市屯溪区迎宾大道北50米（东晶超市对面）",
            "Longitude": "118.230442",
            "Latitude": "29.739",
            "n_car": "5",
            "UID": "3174"
        },
        {
            "MID": "5370",
            "name": "屯溪区阳湖镇人民政府",
            "address": "安徽省黄山市稽灵山路1号",
            "Longitude": "118.298746",
            "Latitude": "29.700629",
            "n_car": "6",
            "UID": "3175"
        },
        {
            "MID": "5369",
            "name": "屯溪区黎阳镇政府",
            "address": "安徽省黄山市屯溪区s220公路屯溪龙山实验小学北邻",
            "Longitude": "118.27449",
            "Latitude": "29.704314",
            "n_car": "6",
            "UID": "3176"
        },
        {
            "MID": "5914",
            "name": "金太阳家具建材市场",
            "address": "安徽省黄山市屯溪区屯光大道22号金太阳家具建材市场A座东",
            "Longitude": "118.343025",
            "Latitude": "29.729214",
            "n_car": "8",
            "UID": "3177"
        },
        {
            "MID": "5930",
            "name": "银河湾小区",
            "address": "安徽省黄山市屯溪区商山路7号",
            "Longitude": "118.277462",
            "Latitude": "29.709244",
            "n_car": "8",
            "UID": "3178"
        },
        {
            "MID": "5933",
            "name": "黄口桥（山田东园）",
            "address": "黄山市屯溪区徽州大道东南侧(黄口大桥南端十字路口)",
            "Longitude": "118.334124",
            "Latitude": "29.708305",
            "n_car": "6",
            "UID": "3179"
        },
        {
            "MID": "5683",
            "name": "黄山市交通运输局",
            "address": "安徽省黄山市屯溪区齐云大道27号",
            "Longitude": "118.289321",
            "Latitude": "29.730435",
            "n_car": "6",
            "UID": "3180"
        }
    ]
}