{
    "network_node_evcard": [
        {
            "Longitude": "102.73888",
            "MID": "5147",
            "address": "昆明市盘龙区青云街道龙华路",
            "name": "中航玺樾",
            "Latitude": "25.0677",
            "n_car": "4",
            "UID": "4067"
        },
        {
            "Longitude": "102.74555",
            "MID": "5554",
            "address": "云南省昆明市盘龙区",
            "name": "昆明测试点",
            "Latitude": "25.05805",
            "n_car": "0",
            "UID": "4068"
        },
        {
            "Longitude": "102.733831",
            "MID": "6228",
            "address": "云南省昆明市盘龙区金菊路",
            "name": "昆明金菊测试点不开放",
            "Latitude": "25.076042",
            "n_car": "0",
            "UID": "4069"
        },
        {
            "Longitude": "102.72971",
            "MID": "6064",
            "address": "云南省昆明市盘龙区北京路1088号领域时代大厦",
            "name": "领域时代大厦",
            "Latitude": "25.08336",
            "n_car": "8",
            "UID": "4070"
        },
        {
            "Longitude": "102.776519",
            "MID": "5696",
            "address": "经济技术开发区经邮路与昌宏路交叉口直行300米2号中凰酒店3号门",
            "name": "中凰酒店",
            "Latitude": "25.000789",
            "n_car": "3",
            "UID": "4071"
        },
        {
            "Longitude": "102.804924",
            "MID": "5770",
            "address": "云南省昆明市官渡区玉缘路尽头与博望路交叉路口左侧直行400米后右侧即到",
            "name": "云南欧通技术",
            "Latitude": "24.968251",
            "n_car": "6",
            "UID": "4072"
        },
        {
            "Longitude": "102.718273",
            "MID": "5967",
            "address": "云南省昆明市西山区二环南路678-639号凯旋利汽车市场西场1号场3幢303号",
            "name": "凯旋利.车博汇",
            "Latitude": "24.97724",
            "n_car": "6",
            "UID": "4073"
        }
    ]
}