{
    "network_node_evcard": [
        {
            "address": "江苏省盐城市亭湖区开放大道200号",
            "n_car": "2",
            "Latitude": "33.4275",
            "MID": "5356",
            "Longitude": "120.121944",
            "UID": "2722",
            "name": "五金机电城"
        },
        {
            "address": "江苏省盐城市亭湖区新洋路23号",
            "n_car": "2",
            "Latitude": "33.419571",
            "MID": "5332",
            "Longitude": "120.105239",
            "UID": "2723",
            "name": "亭湖区中西结合医院"
        },
        {
            "address": "江苏省盐城市青年东路与希望大道交叉口",
            "n_car": "2",
            "Latitude": "33.390181",
            "MID": "5214",
            "Longitude": "120.191824",
            "UID": "2724",
            "name": "亭湖区文化艺术中心"
        },
        {
            "address": "江苏省盐城市解放南路15号（南门大桥南东侧）",
            "n_car": "10",
            "Latitude": "33.378611",
            "MID": "4892",
            "Longitude": "120.133055",
            "UID": "2725",
            "name": "南门华府"
        },
        {
            "address": "江苏省盐城市经济技术开发区新都东路98号",
            "n_car": "5",
            "Latitude": "33.383922",
            "MID": "5216",
            "Longitude": "120.225191",
            "UID": "2726",
            "name": "卡迪欢乐世界"
        },
        {
            "address": "江苏省盐城市亭湖区青年中路26号",
            "n_car": "4",
            "Latitude": "33.364257",
            "MID": "5622",
            "Longitude": "120.137627",
            "UID": "2727",
            "name": "圣华名都苑"
        },
        {
            "address": "江苏省盐城市天山南路18号",
            "n_car": "3",
            "Latitude": "33.354851",
            "MID": "5331",
            "Longitude": "120.208614",
            "UID": "2728",
            "name": "悦达泰和国际健身会所"
        },
        {
            "address": "江苏省盐城市经济技术开发区黄山南路12号",
            "n_car": "5",
            "Latitude": "33.367222",
            "MID": "4867",
            "Longitude": "120.223611",
            "UID": "2729",
            "name": "新嘉源人才公寓"
        },
        {
            "address": "江苏省盐城市亭湖区东环路69号",
            "n_car": "20",
            "Latitude": "33.355278",
            "MID": "4856",
            "Longitude": "120.243889",
            "UID": "2730",
            "name": "新能源汽车产业园"
        },
        {
            "address": "江苏省盐城市东进中路1号(盐渎公园南门往南100米路东)",
            "n_car": "5",
            "Latitude": "33.361388",
            "MID": "5328",
            "Longitude": "120.158611",
            "UID": "2731",
            "name": "水城度假酒店"
        },
        {
            "address": "江苏省盐城市亭湖区开放大道437号",
            "n_car": "3",
            "Latitude": "33.441333",
            "MID": "5330",
            "Longitude": "120.096762",
            "UID": "2732",
            "name": "沿海国际灯饰城"
        },
        {
            "address": "江苏省盐城市建军东路131号",
            "n_car": "3",
            "Latitude": "33.38888",
            "MID": "5965",
            "Longitude": "120.1526",
            "UID": "2733",
            "name": "盐城亭湖区卫计委"
        },
        {
            "address": "江苏省盐城市经济技术开发区漓江路66号",
            "n_car": "2",
            "Latitude": "33.357914",
            "MID": "5207",
            "Longitude": "120.26148",
            "UID": "2734",
            "name": "盐城光电产业园"
        },
        {
            "address": "江苏省盐城市新都路与东环路交叉口国际会展中心",
            "n_car": "3",
            "Latitude": "33.380012",
            "MID": "5215",
            "Longitude": "120.218855",
            "UID": "2735",
            "name": "盐城国际会展中心"
        },
        {
            "address": "江苏省盐城市经济技术开发区嫩江路10号（近华山路）",
            "n_car": "3",
            "Latitude": "33.379444",
            "MID": "4865",
            "Longitude": "120.228333",
            "UID": "2736",
            "name": "盐城开发区市民之家"
        },
        {
            "address": "江苏省盐城市综合保税区香港路1号",
            "n_car": "5",
            "Latitude": "33.354082",
            "MID": "5880",
            "Longitude": "120.22466",
            "UID": "2737",
            "name": "盐城综合保税区"
        },
        {
            "address": "江苏省盐城市城南新区西环路282号(盐城交通技师学院北门内)近海洋路",
            "n_car": "5",
            "Latitude": "33.316653",
            "MID": "5205",
            "Longitude": "120.166813",
            "UID": "2738",
            "name": "盐城航空假日酒店"
        },
        {
            "address": "江苏省盐城市亭湖区文港南路105号",
            "n_car": "2",
            "Latitude": "33.366087",
            "MID": "5709",
            "Longitude": "120.176276",
            "UID": "2739",
            "name": "盐城高新技术创业园"
        },
        {
            "address": "江苏省盐城市亭湖区范公中路99号",
            "n_car": "10",
            "Latitude": "33.385461",
            "MID": "5264",
            "Longitude": "120.164627",
            "UID": "2740",
            "name": "金座广场"
        },
        {
            "address": "江苏省盐城市开放大道69号(与毓龙路交界处）",
            "n_car": "5",
            "Latitude": "33.393611",
            "MID": "4870",
            "Longitude": "120.145555",
            "UID": "2741",
            "name": "阅读青年会酒店"
        },
        {
            "address": "江苏省盐城市经济技术开发区九华山路50号韩资工业园邻里中心",
            "n_car": "2",
            "Latitude": "33.383953",
            "MID": "5212",
            "Longitude": "120.268318",
            "UID": "2742",
            "name": "韩资工业园邻里中心"
        },
        {
            "address": "江苏省盐城市",
            "n_car": "3",
            "Latitude": "33.355141",
            "MID": "4134",
            "Longitude": "120.24478",
            "UID": "2743",
            "name": "（不开放）盐城测试中心"
        },
        {
            "address": "江苏省盐城市盐都区解放南路267号",
            "n_car": "6",
            "Latitude": "33.340118",
            "MID": "4871",
            "Longitude": "120.158501",
            "UID": "2744",
            "name": "明城锦江大酒店"
        },
        {
            "address": "江苏省盐城市盐都区盐渎路与新204国道交汇处",
            "n_car": "2",
            "Latitude": "33.304769",
            "MID": "5734",
            "Longitude": "120.108188",
            "UID": "2745",
            "name": "盐城物联大厦"
        },
        {
            "address": "江苏省盐城市盐渎路与人民南路交汇处",
            "n_car": "3",
            "Latitude": "33.339362",
            "MID": "5725",
            "Longitude": "120.178715",
            "UID": "2746",
            "name": "盐城领秀嘉园"
        },
        {
            "address": "江苏省盐城市盐都区新都路29号",
            "n_car": "10",
            "Latitude": "33.329331",
            "MID": "4998",
            "Longitude": "120.137451",
            "UID": "2747",
            "name": "紫金大厦"
        },
        {
            "address": "江苏省盐城市盐都区新都街道(城南新区)西环路1号",
            "n_car": "5",
            "Latitude": "33.343333",
            "MID": "5628",
            "Longitude": "120.136666",
            "UID": "2748",
            "name": "金大洋城市广场"
        },
        {
            "address": "江苏省盐城市西环路东进路交叉口",
            "n_car": "5",
            "Latitude": "33.351309",
            "MID": "5624",
            "Longitude": "120.134542",
            "UID": "2749",
            "name": "金庭苑（东）"
        }
    ]
}