{
    "network_node_evcard": [
        {
            "address": "重庆市渝中区金银湾209号 （歇台子小学旁）国宾豪庭三期车行出入口右侧",
            "n_car": "4",
            "Latitude": "29.540879",
            "MID": "5907",
            "Longitude": "106.496516",
            "UID": "3269",
            "name": "国宾豪庭三期"
        },
        {
            "address": "重庆市渝中区邹容路118号都市广场",
            "n_car": "8",
            "Latitude": "29.56275",
            "MID": "5087",
            "Longitude": "106.57186",
            "UID": "3270",
            "name": "大世界酒店"
        },
        {
            "address": "重庆市渝中区经纬大道776号",
            "n_car": "12",
            "Latitude": "29.54794",
            "MID": "3986",
            "Longitude": "106.49887",
            "UID": "3271",
            "name": "大坪协信星光天地"
        },
        {
            "address": "重庆市渝中区五一路99号",
            "n_car": "7",
            "Latitude": "29.56138",
            "MID": "3987",
            "Longitude": "106.576145",
            "UID": "3272",
            "name": "解放碑协信星光广场"
        },
        {
            "address": "重庆市渝中区两路口中山三路21号",
            "n_car": "4",
            "Latitude": "29.554685",
            "MID": "3397",
            "Longitude": "106.547858",
            "UID": "3273",
            "name": "重庆市电力公司"
        },
        {
            "address": "重庆市大渡口区金阳路127号",
            "n_car": "4",
            "Latitude": "29.43115",
            "MID": "5250",
            "Longitude": "106.46383",
            "UID": "3274",
            "name": "天泰凤阳小镇"
        },
        {
            "address": "重庆市大渡口区翠柏路106号",
            "n_car": "4",
            "Latitude": "29.4672",
            "MID": "5234",
            "Longitude": "106.47061",
            "UID": "3275",
            "name": "天泰时代星座"
        },
        {
            "address": "重庆市大渡口区金桥路8号八一村（市区建桥供电营业厅）",
            "n_car": "6",
            "Latitude": "29.458102",
            "MID": "4342",
            "Longitude": "106.470805",
            "UID": "3276",
            "name": "建桥国网营业厅"
        },
        {
            "address": "重庆市江北区港桂路57号",
            "n_car": "4",
            "Latitude": "29.625451",
            "MID": "5868",
            "Longitude": "106.656254",
            "UID": "3277",
            "name": "凯尔国际冷链物流"
        },
        {
            "address": "重庆市江北区猫儿石新胜村600号",
            "n_car": "0",
            "Latitude": "29.5683",
            "MID": "3983",
            "Longitude": "106.51186",
            "UID": "3278",
            "name": "电科院猫儿石基地"
        },
        {
            "address": "重庆市江北区观音桥洋河一路68号",
            "n_car": "0",
            "Latitude": "29.5804",
            "MID": "3984",
            "Longitude": "106.52803",
            "UID": "3279",
            "name": "观音桥星光68广场"
        },
        {
            "address": "重庆市江北区五福路1号",
            "n_car": "3",
            "Latitude": "29.589216",
            "MID": "3398",
            "Longitude": "106.554523",
            "UID": "3280",
            "name": "重庆电力客服中心"
        },
        {
            "address": "重庆市江北区卧龙路",
            "n_car": "1",
            "Latitude": "29.670801",
            "MID": "4831",
            "Longitude": "106.793166",
            "UID": "3281",
            "name": "（非运营）卧龙路"
        },
        {
            "address": "重庆市沙坪坝区沙坪坝南街60号电力小区老车库",
            "n_car": "2",
            "Latitude": "29.565172",
            "MID": "3721",
            "Longitude": "106.460334",
            "UID": "3282",
            "name": "沙坪坝电力小区"
        },
        {
            "address": "重庆市沙坪坝区西永康居西城康城南路3号",
            "n_car": "6",
            "Latitude": "29.578446",
            "MID": "5877",
            "Longitude": "106.30445",
            "UID": "3283",
            "name": "艺美家居城 "
        },
        {
            "address": "重庆市九龙坡区兴胜路55号8幢附27号正对面",
            "n_car": "4",
            "Latitude": "29.51149",
            "MID": "5124",
            "Longitude": "106.50646",
            "UID": "3284",
            "name": " 盛世华城"
        },
        {
            "address": "重庆市九龙坡区二郎科城支路留学生创业园北",
            "n_car": "4",
            "Latitude": "29.5153",
            "MID": "5794",
            "Longitude": "106.45402",
            "UID": "3285",
            "name": "九龙园区2"
        },
        {
            "address": "重庆市九龙坡区直港大道22-10号民主村",
            "n_car": "2",
            "Latitude": "29.510868",
            "MID": "4335",
            "Longitude": "106.52026",
            "UID": "3286",
            "name": "九龙坡区南北立交"
        },
        {
            "address": "重庆市九龙坡区天宝路（近直港大道）",
            "n_car": "4",
            "Latitude": "29.511099",
            "MID": "4334",
            "Longitude": "106.5179",
            "UID": "3287",
            "name": "九龙坡区天宝路"
        },
        {
            "address": "重庆市九龙坡区西郊路27号",
            "n_car": "6",
            "Latitude": "29.50555",
            "MID": "4339",
            "Longitude": "106.50614",
            "UID": "3288",
            "name": "九龙坡区政府"
        },
        {
            "address": "重庆市九龙坡区西郊路27号",
            "n_car": "4",
            "Latitude": "29.50554",
            "MID": "4340",
            "Longitude": "106.50659",
            "UID": "3289",
            "name": "九龙坡区政府（地库）"
        },
        {
            "address": "重庆市九龙坡区科城路77号",
            "n_car": "4",
            "Latitude": "29.51438",
            "MID": "4652",
            "Longitude": "106.45656",
            "UID": "3290",
            "name": "九龙坡行政服务中心"
        },
        {
            "address": "重庆市九龙坡区动物园轻轨站旁",
            "n_car": "7",
            "Latitude": "29.5029",
            "MID": "4972",
            "Longitude": "106.50495",
            "UID": "3291",
            "name": "动物园轻轨站"
        },
        {
            "address": "重庆市九龙坡区华福大道北段16号",
            "n_car": "4",
            "Latitude": "29.453067",
            "MID": "4341",
            "Longitude": "106.433999",
            "UID": "3292",
            "name": "华岩国网营业厅"
        },
        {
            "address": "重庆市九龙坡区朝阳路108号",
            "n_car": "4",
            "Latitude": "29.51978",
            "MID": "5889",
            "Longitude": "106.46734",
            "UID": "3293",
            "name": "同心家园B区"
        },
        {
            "address": "重庆市九龙园红狮西路1号附3号",
            "n_car": "4",
            "Latitude": "29.503436",
            "MID": "5940",
            "Longitude": "106.46572",
            "UID": "3294",
            "name": "喜悦主题婚礼酒店"
        },
        {
            "address": "重庆市九龙坡区重庆好韵高尔夫俱乐部西门",
            "n_car": "6",
            "Latitude": "29.52909",
            "MID": "5812",
            "Longitude": "106.49759",
            "UID": "3295",
            "name": "好韵高尔夫"
        },
        {
            "address": "重庆市九龙坡区华岩镇华龙大道8号随缘居旁",
            "n_car": "4",
            "Latitude": "29.49517",
            "MID": "5788",
            "Longitude": "106.44747",
            "UID": "3296",
            "name": "实验外语学院"
        },
        {
            "address": "重庆市九龙坡区迎宾大道33号",
            "n_car": "6",
            "Latitude": "29.51245",
            "MID": "5952",
            "Longitude": "106.45977",
            "UID": "3297",
            "name": "居然之家"
        },
        {
            "address": "重庆市九龙坡区石桥铺渝新路建工新康桥旁",
            "n_car": "4",
            "Latitude": "29.53945",
            "MID": "5811",
            "Longitude": "106.4816",
            "UID": "3298",
            "name": "建工新康桥"
        },
        {
            "address": "重庆市九龙坡区二郎科技新城彩云湖配套用房彩云别院",
            "n_car": "6",
            "Latitude": "29.50869",
            "MID": "5898",
            "Longitude": "106.46315",
            "UID": "3299",
            "name": "彩云别院"
        },
        {
            "address": "重庆市九龙坡区二郎科技新城彩云坊",
            "n_car": "8",
            "Latitude": "29.51469",
            "MID": "5950",
            "Longitude": "106.46854",
            "UID": "3300",
            "name": "彩云阁"
        },
        {
            "address": "重庆市九龙坡区科园六路50号",
            "n_car": "4",
            "Latitude": "29.53362",
            "MID": "5196",
            "Longitude": "106.49503",
            "UID": "3301",
            "name": "歇台子派出所"
        },
        {
            "address": "重庆市九龙坡区西郊路59号上游",
            "n_car": "5",
            "Latitude": "29.49844",
            "MID": "4336",
            "Longitude": "106.50379",
            "UID": "3302",
            "name": "毛线沟国网营业厅"
        },
        {
            "address": "重庆市九龙坡区华岩镇共和村6社",
            "n_car": "3",
            "Latitude": "29.480321",
            "MID": "5937",
            "Longitude": "106.42434",
            "UID": "3303",
            "name": "玉仙家苑度假酒店"
        },
        {
            "address": "重庆市九龙坡区直港大道30号附17号",
            "n_car": "5",
            "Latitude": "29.51081",
            "MID": "4974",
            "Longitude": "106.52347",
            "UID": "3304",
            "name": "珠江花园"
        },
        {
            "address": "重庆市九龙坡区科园二路137号",
            "n_car": "4",
            "Latitude": "29.52865",
            "MID": "4876",
            "Longitude": "106.48656",
            "UID": "3305",
            "name": "申基索菲特酒店"
        },
        {
            "address": "重庆市九龙坡区九龙镇新华6村33幢",
            "n_car": "13",
            "Latitude": "29.50509",
            "MID": "4971",
            "Longitude": "106.51585",
            "UID": "3306",
            "name": "皓林新华苑"
        },
        {
            "address": "重庆市九龙坡区西城新苑白彭路石板镇政府",
            "n_car": "4",
            "Latitude": "29.42708",
            "MID": "5785",
            "Longitude": "106.35808",
            "UID": "3307",
            "name": "石板镇政府"
        },
        {
            "address": "重庆市渝州路59号",
            "n_car": "8",
            "Latitude": "29.53934",
            "MID": "5063",
            "Longitude": "106.48814",
            "UID": "3308",
            "name": "石桥广场"
        },
        {
            "address": "重庆市九龙坡区科园三街103号埝山苑",
            "n_car": "6",
            "Latitude": "29.530219",
            "MID": "4337",
            "Longitude": "106.484897",
            "UID": "3309",
            "name": "科园三街"
        },
        {
            "address": "重庆市九龙坡区陈家坪科园二街121号附8号",
            "n_car": "6",
            "Latitude": "29.531952",
            "MID": "4338",
            "Longitude": "106.48972",
            "UID": "3310",
            "name": "科园二街"
        },
        {
            "address": "重庆市西彭镇森迪大道66号",
            "n_car": "5",
            "Latitude": "29.327482",
            "MID": "5927",
            "Longitude": "106.296275",
            "UID": "3311",
            "name": "西彭园区管委会"
        },
        {
            "address": "重庆市九龙坡区西彭铝城大道74号附5号",
            "n_car": "5",
            "Latitude": "29.293922",
            "MID": "5929",
            "Longitude": "106.314926",
            "UID": "3312",
            "name": "西彭科目三考场"
        },
        {
            "address": "重庆市九龙坡区谢家湾正街98号附1号_万象城对面",
            "n_car": "10",
            "Latitude": "29.52096",
            "MID": "4973",
            "Longitude": "106.51336",
            "UID": "3313",
            "name": "谢家湾轻轨站"
        },
        {
            "address": "重庆市九龙坡区五龙庙电力四村9号（电力高等专科学校3号停车场电力梦工厂楼层门前）",
            "n_car": "3",
            "Latitude": "29.48956",
            "MID": "5433",
            "Longitude": "106.52931",
            "UID": "3314",
            "name": "重庆电力高等专科学校"
        },
        {
            "address": "重庆市九龙坡区金凤镇凤德路金凤电子信息产业园",
            "n_car": "5",
            "Latitude": "29.53946",
            "MID": "5783",
            "Longitude": "106.3073",
            "UID": "3315",
            "name": "金凤园区"
        },
        {
            "address": "重庆市九龙坡区铜罐镇政府对面停车场",
            "n_car": "5",
            "Latitude": "29.297451",
            "MID": "5925",
            "Longitude": "106.381779",
            "UID": "3316",
            "name": "铜罐驿镇政府"
        },
        {
            "address": "重庆市九龙坡区石坪桥横街2号附5号隆鑫国际",
            "n_car": "10",
            "Latitude": "29.524748",
            "MID": "4526",
            "Longitude": "106.498517",
            "UID": "3317",
            "name": "隆鑫国际"
        },
        {
            "address": "重庆市九龙坡区剑龙北路1号",
            "n_car": "5",
            "Latitude": "29.50447",
            "MID": "4875",
            "Longitude": "106.48145",
            "UID": "3318",
            "name": "隆鑫西城汇"
        },
        {
            "address": "重庆市九龙坡区驰骋体育育才中学足球训练基地内",
            "n_car": "15",
            "Latitude": "29.530674",
            "MID": "5953",
            "Longitude": "106.504214",
            "UID": "3319",
            "name": "驰骋奥体足球中心"
        },
        {
            "address": "重庆市九龙坡区白市驿镇锦驿路1号左边旁边广场",
            "n_car": "5",
            "Latitude": "29.451088",
            "MID": "5910",
            "Longitude": "106.366684",
            "UID": "3320",
            "name": "驿城园林有限公司"
        },
        {
            "address": "重庆市南岸区茶园新区长生路13号",
            "n_car": "6",
            "Latitude": "29.47382",
            "MID": "5439",
            "Longitude": "106.62976",
            "UID": "3321",
            "name": " 茶园局大楼"
        },
        {
            "address": "重庆市巴南区一品镇民兴路13号",
            "n_car": "4",
            "Latitude": "29.28715",
            "MID": "5435",
            "Longitude": "106.56359",
            "UID": "3322",
            "name": "一品供电所"
        },
        {
            "address": "重庆市南岸区江南大道28号",
            "n_car": "8",
            "Latitude": "29.524795",
            "MID": "3985",
            "Longitude": "106.568408",
            "UID": "3323",
            "name": "南坪星光时代广场"
        },
        {
            "address": "重庆市南岸区南城大道23号",
            "n_car": "4",
            "Latitude": "29.52581",
            "MID": "5886",
            "Longitude": "106.56249",
            "UID": "3324",
            "name": "南岸区供电营业厅"
        },
        {
            "address": "重庆市巴南区南彭镇南东路32号（南岸南湖供电营业厅停车场内）",
            "n_car": "4",
            "Latitude": "29.34521",
            "MID": "5436",
            "Longitude": "106.65181",
            "UID": "3325",
            "name": "南湖供电所"
        },
        {
            "address": "重庆市南岸区茶园大道新城通江大道188号",
            "n_car": "6",
            "Latitude": "29.490008",
            "MID": "5899",
            "Longitude": "106.639094",
            "UID": "3326",
            "name": "茶园轻轨站"
        },
        {
            "address": "重庆市南岸区长生桥镇长生一支路3号附7号（国网营业厅）",
            "n_car": "4",
            "Latitude": "29.5069",
            "MID": "5440",
            "Longitude": "106.66667",
            "UID": "3327",
            "name": "长生供电所"
        },
        {
            "address": "重庆市巴南区迎宾路106-1号",
            "n_car": "4",
            "Latitude": "29.44575",
            "MID": "5438",
            "Longitude": "106.61236",
            "UID": "3328",
            "name": "鹿角供电所"
        },
        {
            "address": "重庆市两江新区金开大道56号",
            "n_car": "6",
            "Latitude": "29.628782",
            "MID": "5872",
            "Longitude": "106.527301",
            "UID": "3329",
            "name": "两江天地"
        },
        {
            "address": "重庆市北部新区金渝大道16号",
            "n_car": "9",
            "Latitude": "29.669589",
            "MID": "4364",
            "Longitude": "106.481985",
            "UID": "3330",
            "name": "北恒企业公园"
        },
        {
            "address": "重庆市渝北区金渝大道28号",
            "n_car": "5",
            "Latitude": "29.669573",
            "MID": "4527",
            "Longitude": "106.506699",
            "UID": "3331",
            "name": "博速天远维修中心"
        },
        {
            "address": "重庆市渝北区吉乐大道1号邢家桥社区",
            "n_car": "8",
            "Latitude": "29.625726",
            "MID": "4365",
            "Longitude": "106.522783",
            "UID": "3332",
            "name": "古木峰食塘美食街"
        },
        {
            "address": "重庆市北部新区金开大道88号附4号",
            "n_car": "3",
            "Latitude": "29.63802",
            "MID": "4170",
            "Longitude": "106.53826",
            "UID": "3333",
            "name": "棕榈泉国际花园"
        },
        {
            "address": "重庆市渝北区华山南路16号",
            "n_car": "7",
            "Latitude": "29.629414",
            "MID": "4528",
            "Longitude": "106.460677",
            "UID": "3334",
            "name": "渝北区互联网学院"
        },
        {
            "address": "重庆市渝北区青枫北路20号凤凰座D(近黄杨路)",
            "n_car": "4",
            "Latitude": "29.616014",
            "MID": "3720",
            "Longitude": "106.495712",
            "UID": "3335",
            "name": "渝北区凤凰座D"
        },
        {
            "address": "重庆渝北区兴隆镇三兴路",
            "n_car": "8",
            "Latitude": "29.88754",
            "MID": "5939",
            "Longitude": "106.7049",
            "UID": "3336",
            "name": "石兴供电所"
        },
        {
            "address": "重庆市渝北区石船镇石龙路",
            "n_car": "6",
            "Latitude": "29.76262",
            "MID": "5913",
            "Longitude": "106.82176",
            "UID": "3337",
            "name": "石船供电所"
        },
        {
            "address": "重庆市渝北区礼仁街26号",
            "n_car": "4",
            "Latitude": "29.680344",
            "MID": "5864",
            "Longitude": "106.492636",
            "UID": "3338",
            "name": "礼嘉街道"
        },
        {
            "address": "重庆市北部新区金渝大道18号",
            "n_car": "8",
            "Latitude": "29.670555",
            "MID": "4366",
            "Longitude": "106.484959",
            "UID": "3339",
            "name": "禾晨酒店"
        },
        {
            "address": "重庆市渝北区大竹林镇石梁桥的竹林宾馆停车场",
            "n_car": "6",
            "Latitude": "29.62625",
            "MID": "5851",
            "Longitude": "106.47849",
            "UID": "3340",
            "name": "竹林宾馆"
        },
        {
            "address": "重庆市两江新区西湖支路2号",
            "n_car": "6",
            "Latitude": "29.613878",
            "MID": "5862",
            "Longitude": "106.502115",
            "UID": "3341",
            "name": "精信中心"
        },
        {
            "address": "重庆市渝北区红枫路8号紫福路社区",
            "n_car": "10",
            "Latitude": "29.606042",
            "MID": "4367",
            "Longitude": "106.531489",
            "UID": "3342",
            "name": "红枫路花木古玩市场"
        },
        {
            "address": "重庆市渝北区景同路266号",
            "n_car": "10",
            "Latitude": "29.85157",
            "MID": "5922",
            "Longitude": "106.84215",
            "UID": "3343",
            "name": "统景供电所"
        },
        {
            "address": "重庆市渝北区人和大道8号万年路社区",
            "n_car": "4",
            "Latitude": "29.616546",
            "MID": "4530",
            "Longitude": "106.525543",
            "UID": "3344",
            "name": "耀文建设集团"
        },
        {
            "address": "重庆渝北区茨竹竹松路",
            "n_car": "7",
            "Latitude": "29.98546",
            "MID": "5938",
            "Longitude": "106.73707",
            "UID": "3345",
            "name": "茨永供电所"
        },
        {
            "address": "重庆市渝北区洪湖东路1号",
            "n_car": "8",
            "Latitude": "29.611951",
            "MID": "5861",
            "Longitude": "106.504511",
            "UID": "3346",
            "name": "财富中心"
        },
        {
            "address": "重庆市渝北区洪湖西路39号星湖路社区",
            "n_car": "4",
            "Latitude": "29.610785",
            "MID": "4529",
            "Longitude": "106.499359",
            "UID": "3347",
            "name": "重庆奇瑞新能源"
        },
        {
            "address": "重庆市渝北区黄山大道中段80号（近金通大道）",
            "n_car": "2",
            "Latitude": "29.618717",
            "MID": "3719",
            "Longitude": "106.478391",
            "UID": "3348",
            "name": "重庆电力科学研究院"
        },
        {
            "address": "重庆市巴南区渝南大道77号典雅产业集团停车场",
            "n_car": "5",
            "Latitude": "29.452629",
            "MID": "5892",
            "Longitude": "106.55172",
            "UID": "3349",
            "name": "典雅产业集团总部"
        },
        {
            "address": "重庆市巴南区鱼洞云锦路1号",
            "n_car": "5",
            "Latitude": "29.37573",
            "MID": "5888",
            "Longitude": "106.49838",
            "UID": "3350",
            "name": "典雅华美达酒店"
        },
        {
            "address": "重庆市巴南区龙海大道5号",
            "n_car": "8",
            "Latitude": "29.401975",
            "MID": "5887",
            "Longitude": "106.538814",
            "UID": "3351",
            "name": "典雅国际戴斯酒店"
        },
        {
            "address": "重庆市巴南区花溪渝南分流道巴南皮草城B馆",
            "n_car": "6",
            "Latitude": "29.445636",
            "MID": "5883",
            "Longitude": "106.539316",
            "UID": "3352",
            "name": "巴南皮草城"
        },
        {
            "address": "重庆市巴南区石美大道581号",
            "n_car": "6",
            "Latitude": "29.389868",
            "MID": "5894",
            "Longitude": "106.599418",
            "UID": "3353",
            "name": "星界大酒店"
        },
        {
            "address": "重庆市巴南区龙洲湾交通换乘枢纽的社会车辆入口",
            "n_car": "10",
            "Latitude": "29.380898",
            "MID": "5890",
            "Longitude": "106.536365",
            "UID": "3354",
            "name": "龙洲湾换乘枢纽"
        },
        {
            "address": "璧山区双星大道锦春绿岛新都西南50米",
            "n_car": "4",
            "Latitude": "29.57905",
            "MID": "5014",
            "Longitude": "106.22079",
            "UID": "3355",
            "name": "同景国际停车场"
        },
        {
            "address": "璧山区远林二街小区附近（远林休闲中心西南）",
            "n_car": "4",
            "Latitude": "29.60015",
            "MID": "4999",
            "Longitude": "106.21747",
            "UID": "3356",
            "name": "城丁路口生态停车场"
        },
        {
            "address": " 重庆市璧山区工业路申通快递东100米（金桂苑东北）",
            "n_car": "6",
            "Latitude": "29.57598",
            "MID": "4992",
            "Longitude": "106.23439",
            "UID": "3357",
            "name": "奥特莱斯生态停车场"
        },
        {
            "address": "璧山区康宁路7号河西安置区内院停车场5单元门口",
            "n_car": "4",
            "Latitude": "29.56141",
            "MID": "5012",
            "Longitude": "106.22245",
            "UID": "3358",
            "name": "康宁路河西安置区"
        },
        {
            "address": "璧山区文化艺术中心背后生态停车场",
            "n_car": "4",
            "Latitude": "29.57699",
            "MID": "5015",
            "Longitude": "106.20276",
            "UID": "3359",
            "name": "文化艺术中心停车场"
        },
        {
            "address": "璧山区青路天德康都南100米（璧山客车站东）",
            "n_car": "4",
            "Latitude": "29.5893",
            "MID": "4993",
            "Longitude": "106.23751",
            "UID": "3360",
            "name": "温泉芋荷安置片区 "
        },
        {
            "address": "璧山区沿河西路南段生态停车场公共卫生间旁",
            "n_car": "4",
            "Latitude": "29.55875",
            "MID": "5011",
            "Longitude": "106.22127",
            "UID": "3361",
            "name": "湿地公园（西门）"
        },
        {
            "address": "璧山区党校前院停车场左侧",
            "n_car": "4",
            "Latitude": "29.58637",
            "MID": "5018",
            "Longitude": "106.21777",
            "UID": "3362",
            "name": "璧山区党校"
        },
        {
            "address": "璧山区政府1号停车场",
            "n_car": "4",
            "Latitude": "29.58012",
            "MID": "5016",
            "Longitude": "106.20329",
            "UID": "3363",
            "name": "璧山区政府1号停车场"
        },
        {
            "address": "璧山区戴山大道渝西国际广场西300米",
            "n_car": "4",
            "Latitude": "29.59628",
            "MID": "5020",
            "Longitude": "106.21052",
            "UID": "3364",
            "name": "璧山区红星美凯龙"
        },
        {
            "address": "璧山区秀湖公园状元及第门牌旁",
            "n_car": "6",
            "Latitude": "29.58526",
            "MID": "5017",
            "Longitude": "106.20698",
            "UID": "3365",
            "name": "秀湖公园停车场"
        },
        {
            "address": "重庆市璧山区丰足楦头工厂正门对面停车场内",
            "n_car": "4",
            "Latitude": "29.56303",
            "MID": "5019",
            "Longitude": "106.22642",
            "UID": "3366",
            "name": "重庆丰足楦头"
        },
        {
            "address": "重庆市璧山区虎峰大道高铁璧山站",
            "n_car": "10",
            "Latitude": "29.50818",
            "MID": "5010",
            "Longitude": "106.22031",
            "UID": "3367",
            "name": "高铁璧山站"
        }
    ]
}