{
    "network_node_evcard": [
        {
            "Longitude": "120.54517",
            "MID": "4859",
            "address": "江苏省苏州市虎丘区马运路252号",
            "name": "汽车城奇瑞新能源店",
            "Latitude": "31.32213",
            "n_car": "5",
            "UID": "2745"
        },
        {
            "Longitude": "120.54602",
            "MID": "4733",
            "address": "江苏省苏州市虎丘区长江路318号",
            "name": "苏州御花园广场",
            "Latitude": "31.29034",
            "n_car": "12",
            "UID": "2746"
        },
        {
            "Longitude": "120.55712",
            "MID": "3753",
            "address": "江苏省苏州市虎丘区滨河路2088号",
            "name": "蓝天商务广场",
            "Latitude": "31.32058",
            "n_car": "24",
            "UID": "2747"
        },
        {
            "Longitude": "120.57142",
            "MID": "3759",
            "address": "江苏省苏州市虎丘区滨河南路与苏福路交汇处",
            "name": "远发金屋家具广场",
            "Latitude": "31.27081",
            "n_car": "6",
            "UID": "2748"
        },
        {
            "Longitude": "120.55779",
            "MID": "4858",
            "address": "江苏省苏州市新区滨河路与枫桥大街路口",
            "name": "金科大酒店",
            "Latitude": "31.31289",
            "n_car": "10",
            "UID": "2749"
        },
        {
            "Longitude": "120.53441",
            "MID": "3762",
            "address": "江苏省苏州市虎丘区长江路815号",
            "name": "长江湾商业广场",
            "Latitude": "31.3436",
            "n_car": "12",
            "UID": "2750"
        },
        {
            "Longitude": "120.53303",
            "MID": "3761",
            "address": "江苏省苏州市虎丘区长江路815号",
            "name": "长江湾商业广场（地下）",
            "Latitude": "31.34338",
            "n_car": "12",
            "UID": "2751"
        },
        {
            "Longitude": "120.64851",
            "MID": "3756",
            "address": "江苏省苏州市吴中区中新大道299号",
            "name": "万科美好广场",
            "Latitude": "31.30643",
            "n_car": "20",
            "UID": "2752"
        },
        {
            "Longitude": "120.420352",
            "MID": "653",
            "address": "江苏省苏州市吴中区东山镇湖滨路8号",
            "name": "东山游客中心",
            "Latitude": "31.094851",
            "n_car": "8",
            "UID": "2753"
        },
        {
            "Longitude": "120.70315",
            "MID": "5309",
            "address": "江苏省苏州市工业园区国宾路1号",
            "name": "凯宾斯基大酒店",
            "Latitude": "31.28571",
            "n_car": "12",
            "UID": "2754"
        },
        {
            "Longitude": "120.454308",
            "MID": "654",
            "address": "江苏省苏州市吴中区园博园P1停车场",
            "name": "园博园P1停车场",
            "Latitude": "31.143552",
            "n_car": "3",
            "UID": "2755"
        },
        {
            "Longitude": "120.390801",
            "MID": "6251",
            "address": "江苏省苏州市吴中区太湖国家旅游度假区墅里路8号",
            "name": "城仕高尔夫广场",
            "Latitude": "31.223943",
            "n_car": "3",
            "UID": "2756"
        },
        {
            "Longitude": "120.37269",
            "MID": "5263",
            "address": "江苏省苏州市吴中区东山镇陆巷古村白沙二组（洞庭湖水厂对面）",
            "name": "外婆桥四季客栈",
            "Latitude": "31.08776",
            "n_car": "3",
            "UID": "2757"
        },
        {
            "Longitude": "120.53136",
            "MID": "3749",
            "address": "江苏省苏州市吴中区木渎镇中山东路88号",
            "name": "大运城商业中心",
            "Latitude": "31.26034",
            "n_car": "24",
            "UID": "2758"
        },
        {
            "Longitude": "120.470874",
            "MID": "656",
            "address": "江苏省苏州市吴中区木渎镇藏书天池山景区",
            "name": "天池山景区",
            "Latitude": "31.298954",
            "n_car": "5",
            "UID": "2759"
        },
        {
            "Longitude": "120.446733",
            "MID": "650",
            "address": "江苏省苏州市吴中区孙武路2013号",
            "name": "太湖游客中心",
            "Latitude": "31.226637",
            "n_car": "15",
            "UID": "2760"
        },
        {
            "Longitude": "120.65998",
            "MID": "3763",
            "address": "江苏省苏州市吴中区苏惠路158号",
            "name": "左岸商业街B区",
            "Latitude": "31.315",
            "n_car": "7",
            "UID": "2761"
        },
        {
            "Longitude": "120.32831",
            "MID": "651",
            "address": "江苏省苏州市吴中区金庭镇大桥路金玲珑大酒店金庭店南侧",
            "name": "庭山驿站",
            "Latitude": "31.158543",
            "n_car": "5",
            "UID": "2762"
        },
        {
            "Longitude": "120.42621",
            "MID": "3760",
            "address": "江苏省苏州市吴中区山水路木东路交汇处",
            "name": "悦湖竹轩酒店",
            "Latitude": "31.09076",
            "n_car": "18",
            "UID": "2763"
        },
        {
            "Longitude": "120.68207",
            "MID": "3863",
            "address": "江苏省苏州市吴中区金丝港路77号",
            "name": "方泰科技园",
            "Latitude": "31.22413",
            "n_car": "36",
            "UID": "2764"
        },
        {
            "Longitude": "120.66625",
            "MID": "3757",
            "address": "江苏省苏州市吴中区星海街5号",
            "name": "星海五号创意园",
            "Latitude": "31.2994",
            "n_car": "20",
            "UID": "2765"
        },
        {
            "Longitude": "120.51199",
            "MID": "5658",
            "address": "江苏省苏州市吴中区金山路288号",
            "name": "木渎影视城",
            "Latitude": "31.27838",
            "n_car": "16",
            "UID": "2766"
        },
        {
            "Longitude": "120.74197",
            "MID": "4057",
            "address": "江苏省苏州市吴中区斜塘镇松江路",
            "name": "欧尚超市（星塘店）",
            "Latitude": "31.29963",
            "n_car": "18",
            "UID": "2767"
        },
        {
            "Longitude": "120.35693",
            "MID": "1291",
            "address": "江苏省苏州市吴中区碧螺风景区东山镇环山路1号",
            "name": "沙滩山码头",
            "Latitude": "31.06689",
            "n_car": "5",
            "UID": "2768"
        },
        {
            "Longitude": "120.50392",
            "MID": "3754",
            "address": "江苏省苏州市吴中区临湖镇铺庄石庄村东木排",
            "name": "社区卫生服务石庄站",
            "Latitude": "31.17509",
            "n_car": "12",
            "UID": "2769"
        },
        {
            "Longitude": "120.38174",
            "MID": "1292",
            "address": "江苏省苏州市吴中区东山镇环湖路（近山水路）",
            "name": "紫金庵",
            "Latitude": "31.06177",
            "n_car": "3",
            "UID": "2770"
        },
        {
            "Longitude": "120.482614",
            "MID": "657",
            "address": "江苏省苏州市吴中区白马涧景区",
            "name": "花山",
            "Latitude": "31.299713",
            "n_car": "5",
            "UID": "2771"
        },
        {
            "Longitude": "120.430452",
            "MID": "827",
            "address": "江苏省苏州市吴中区环太湖大道",
            "name": "苏州园",
            "Latitude": "31.132855",
            "n_car": "5",
            "UID": "2772"
        },
        {
            "Longitude": "120.66124",
            "MID": "5362",
            "address": "江苏省苏州市吴中区园区宏业路111号",
            "name": "贝客公寓通园路店",
            "Latitude": "31.26908",
            "n_car": "6",
            "UID": "2773"
        },
        {
            "Longitude": "120.6851",
            "MID": "3751",
            "address": "江苏省苏州市吴中区金丝港路39号",
            "name": "郭巷金丝港路39号",
            "Latitude": "31.22409",
            "n_car": "18",
            "UID": "2774"
        },
        {
            "Longitude": "120.33543",
            "MID": "658",
            "address": "江苏省苏州市吴中区东山镇杨湾村长圻码头西巷（近环山公路）",
            "name": "长圻驿站",
            "Latitude": "31.03762",
            "n_car": "2",
            "UID": "2775"
        },
        {
            "Longitude": "120.631666",
            "MID": "3758",
            "address": "江苏省苏州市吴中区石湖东路77号",
            "name": "雅杰大酒店",
            "Latitude": "31.254166",
            "n_car": "10",
            "UID": "2776"
        },
        {
            "Longitude": "120.25742",
            "MID": "652",
            "address": "江苏省苏州市吴中区金庭镇飘渺峰环路飘渺峰景区",
            "name": "飘渺峰驿站",
            "Latitude": "31.141867",
            "n_car": "2",
            "UID": "2777"
        },
        {
            "Longitude": "120.40716",
            "MID": "1290",
            "address": "江苏省苏州市吴中区环太湖大道烟波路1号（近环太湖大道）",
            "name": "香山国际",
            "Latitude": "31.21492",
            "n_car": "5",
            "UID": "2778"
        },
        {
            "Longitude": "120.45273",
            "MID": "655",
            "address": "江苏省苏州市吴中区环镇路9号桥北",
            "name": "（A借A还，外车禁还）园博园停车场",
            "Latitude": "31.139022",
            "n_car": "5",
            "UID": "2779"
        },
        {
            "Longitude": "120.68073",
            "MID": "5891",
            "address": "江苏省苏州市相城区凤南路与爱格豪路交叉口西南150米",
            "name": "中汽零大厦",
            "Latitude": "31.47565",
            "n_car": "8",
            "UID": "2780"
        },
        {
            "Longitude": "120.66793",
            "MID": "3748",
            "address": "江苏省苏州市相城区珍珠湖路与翡翠路交叉口",
            "name": "宝润168广场",
            "Latitude": "31.46809",
            "n_car": "6",
            "UID": "2781"
        },
        {
            "Longitude": "120.60575",
            "MID": "5884",
            "address": "江苏省苏州市相城区北桥镇凤北荡路198号",
            "name": "江苏正华影视产业园",
            "Latitude": "31.49422",
            "n_car": "4",
            "UID": "2782"
        },
        {
            "Longitude": "120.64149",
            "MID": "3752",
            "address": "江苏省苏州市相城区苏渭路50号",
            "name": "金艺百汇广场",
            "Latitude": "31.46315",
            "n_car": "12",
            "UID": "2783"
        },
        {
            "Longitude": "120.590571",
            "MID": "5703",
            "address": "江苏省苏州市姑苏区吴中西路909号",
            "name": "新城汇邻中心",
            "Latitude": "31.271401",
            "n_car": "5",
            "UID": "2784"
        },
        {
            "Longitude": "120.58432",
            "MID": "5916",
            "address": "江苏省苏州市姑苏区桐泾北路218号地下",
            "name": "来客茂时尚中心地下",
            "Latitude": "31.31477",
            "n_car": "6",
            "UID": "2785"
        },
        {
            "Longitude": "120.58415",
            "MID": "5915",
            "address": "江苏省苏州市姑苏区桐泾北路218号",
            "name": "来客茂时尚生活中心",
            "Latitude": "31.31382",
            "n_car": "6",
            "UID": "2786"
        },
        {
            "Longitude": "120.62862",
            "MID": "4561",
            "address": "江苏省苏州市姑苏区南环东路758号",
            "name": "汇邻广场2号楼",
            "Latitude": "31.28311",
            "n_car": "5",
            "UID": "2787"
        },
        {
            "Longitude": "120.63035",
            "MID": "4562",
            "address": "江苏省苏州市姑苏区南环东路758号-1",
            "name": "汇邻广场3号楼",
            "Latitude": "31.28337",
            "n_car": "7",
            "UID": "2788"
        },
        {
            "Longitude": "120.59645",
            "MID": "3747",
            "address": "江苏省苏州市姑苏区广济南路258号",
            "name": "百脑汇广场",
            "Latitude": "31.31328",
            "n_car": "9",
            "UID": "2789"
        },
        {
            "Longitude": "120.60963",
            "MID": "3755",
            "address": "江苏省苏州市姑苏区苏站路1388号",
            "name": "苏宁生活广场",
            "Latitude": "31.33609",
            "n_car": "36",
            "UID": "2790"
        },
        {
            "Longitude": "120.59623",
            "MID": "5003",
            "address": "江苏省苏州市姑苏区广济南路19号",
            "name": "西城永捷生活广场",
            "Latitude": "31.30691",
            "n_car": "20",
            "UID": "2791"
        },
        {
            "Longitude": "120.62152",
            "MID": "1337",
            "address": "苏州姑苏区富仁坊巷44号观前公园人防停车场",
            "name": "观前街",
            "Latitude": "31.31099",
            "n_car": "33",
            "UID": "2792"
        },
        {
            "Longitude": "120.63858",
            "MID": "4745",
            "address": "苏州市姑苏区翠庭路",
            "name": "觅渡翠庭",
            "Latitude": "31.28838",
            "n_car": "3",
            "UID": "2793"
        },
        {
            "Longitude": "120.60075",
            "MID": "5702",
            "address": "江苏省苏州市姑苏区宝带西路977号",
            "name": "邻里情社区生活馆",
            "Latitude": "31.26722",
            "n_car": "6",
            "UID": "2794"
        },
        {
            "Longitude": "120.77608",
            "MID": "5290",
            "address": "江苏省苏州市常熟市富仓路16-18号",
            "name": "中宏万家广场",
            "Latitude": "31.62725",
            "n_car": "8",
            "UID": "2795"
        },
        {
            "Longitude": "120.825921",
            "MID": "5269",
            "address": "江苏省苏州常熟市古里镇元枫路",
            "name": "古里中宏新农中心",
            "Latitude": "31.638821",
            "n_car": "10",
            "UID": "2796"
        },
        {
            "Longitude": "120.811291",
            "MID": "5291",
            "address": "江苏省苏州市常熟市周行镇东街",
            "name": "周行中宏新农中心",
            "Latitude": "31.709551",
            "n_car": "6",
            "UID": "2797"
        },
        {
            "Longitude": "120.620261",
            "MID": "5285",
            "address": "江苏省苏州常熟市尚湖镇练塘圆圆城市生活广场",
            "name": "圆圆城市生活超市",
            "Latitude": "31.622171",
            "n_car": "6",
            "UID": "2798"
        },
        {
            "Longitude": "120.63211",
            "MID": "4732",
            "address": "江苏省苏州市常熟市中兴路近新和南路",
            "name": "宝利商业广场",
            "Latitude": "31.66002",
            "n_car": "6",
            "UID": "2799"
        },
        {
            "Longitude": "120.799938",
            "MID": "4569",
            "address": "江苏省苏州市常熟市东南开发区富春江路79号",
            "name": "常熟东南食品城",
            "Latitude": "31.630234",
            "n_car": "10",
            "UID": "2800"
        },
        {
            "Longitude": "120.731931",
            "MID": "5266",
            "address": "江苏省苏州常熟市虞山镇报慈北路218号",
            "name": "常熟四季花园酒店",
            "Latitude": "31.675071",
            "n_car": "6",
            "UID": "2801"
        },
        {
            "Longitude": "121.01108",
            "MID": "4753",
            "address": "苏州市常熟市碧溪新区东张南大街11号",
            "name": "常熟壹号宾馆",
            "Latitude": "31.69991",
            "n_car": "6",
            "UID": "2802"
        },
        {
            "Longitude": "120.767082",
            "MID": "4564",
            "address": "江苏省苏州市常熟市湖畔商业街东南大道与湖山路交叉口",
            "name": "常熟市湖畔商业街",
            "Latitude": "31.599711",
            "n_car": "5",
            "UID": "2803"
        },
        {
            "Longitude": "120.73666",
            "MID": "5273",
            "address": "江苏省苏州常熟市黄河路263号",
            "name": "常熟港澳城",
            "Latitude": "31.67787",
            "n_car": "8",
            "UID": "2804"
        },
        {
            "Longitude": "120.801256",
            "MID": "4736",
            "address": "江苏省苏州市常熟市黄山路188号",
            "name": "常熟白金翰宫俱乐部",
            "Latitude": "31.636442",
            "n_car": "8",
            "UID": "2805"
        },
        {
            "Longitude": "120.78247",
            "MID": "4565",
            "address": "江苏省苏州市常熟市南开发区银环路99号",
            "name": "常熟花园",
            "Latitude": "31.602019",
            "n_car": "6",
            "UID": "2806"
        },
        {
            "Longitude": "120.96459",
            "MID": "5289",
            "address": "江苏省苏州常熟市支塘镇宝芝路1号",
            "name": "支塘中宏新农中心",
            "Latitude": "31.60619",
            "n_car": "6",
            "UID": "2807"
        },
        {
            "Longitude": "120.81483",
            "MID": "5279",
            "address": "江苏省苏州市常熟市新安江路",
            "name": "新安江中宏新农中心",
            "Latitude": "31.61506",
            "n_car": "7",
            "UID": "2808"
        },
        {
            "Longitude": "120.767658",
            "MID": "4563",
            "address": "江苏省苏州市常熟市沙南路101号",
            "name": "沙家浜大酒店",
            "Latitude": "31.568678",
            "n_car": "6",
            "UID": "2809"
        },
        {
            "Longitude": "120.79078",
            "MID": "4752",
            "address": "江苏省苏州市常熟市沙家浜镇",
            "name": "沙家浜景区",
            "Latitude": "31.55179",
            "n_car": "10",
            "UID": "2810"
        },
        {
            "Longitude": "120.62816",
            "MID": "5277",
            "address": "江苏省苏州市常熟市尚湖镇",
            "name": "练塘休闲广场",
            "Latitude": "31.61909",
            "n_car": "6",
            "UID": "2811"
        },
        {
            "Longitude": "120.94847",
            "MID": "4750",
            "address": "江苏省苏州常熟市支塘镇锦绣大道",
            "name": "食贸中心",
            "Latitude": "31.60416",
            "n_car": "12",
            "UID": "2812"
        },
        {
            "Longitude": "120.69241",
            "MID": "6241",
            "address": "江苏省苏州市张家港市乐余镇派出所斜对面",
            "name": "万泰大酒店",
            "Latitude": "31.92326",
            "n_car": "6",
            "UID": "2813"
        },
        {
            "Longitude": "120.63301",
            "MID": "5607",
            "address": "江苏省苏州市张家港塘桥南京西路",
            "name": "东海明珠小区",
            "Latitude": "31.82031",
            "n_car": "6",
            "UID": "2814"
        },
        {
            "Longitude": "120.70022",
            "MID": "5612",
            "address": "江苏省苏州张家港市镇中西路14号附近",
            "name": "乐余商贸花苑",
            "Latitude": "31.92832",
            "n_car": "6",
            "UID": "2815"
        },
        {
            "Longitude": "120.68507",
            "MID": "5611",
            "address": "张家港市苏州张家港市乐丰路民营开发区",
            "name": "九易汽车服务乐丰店",
            "Latitude": "31.93014",
            "n_car": "5",
            "UID": "2816"
        },
        {
            "Longitude": "120.62646",
            "MID": "6233",
            "address": "江苏省苏州市张家港市凤凰镇西妙路",
            "name": "凤凰绿郡南区",
            "Latitude": "31.78885",
            "n_car": "6",
            "UID": "2817"
        },
        {
            "Longitude": "120.49286",
            "MID": "5609",
            "address": "江苏省苏州张家港市德申路206号",
            "name": "华申苑小区",
            "Latitude": "31.99315",
            "n_car": "6",
            "UID": "2818"
        },
        {
            "Longitude": "120.43721",
            "MID": "6234",
            "address": "江苏省苏州市张家港市镇山路西50米   ",
            "name": "后塍大酒店",
            "Latitude": "31.92558",
            "n_car": "6",
            "UID": "2819"
        },
        {
            "Longitude": "120.62425",
            "MID": "5608",
            "address": "江苏省苏州市张家港市张港里",
            "name": "和鑫花园",
            "Latitude": "31.84964",
            "n_car": "6",
            "UID": "2820"
        },
        {
            "Longitude": "120.59664",
            "MID": "5602",
            "address": "江苏省苏州市张家港合兴镇悦来花苑西区",
            "name": "悦来花苑西区物业",
            "Latitude": "31.94542",
            "n_car": "6",
            "UID": "2821"
        },
        {
            "Longitude": "120.59172",
            "MID": "5736",
            "address": "江苏省苏州市张家港市乘河东路",
            "name": "新乘花苑",
            "Latitude": "31.85284",
            "n_car": "6",
            "UID": "2822"
        },
        {
            "Longitude": "120.45011",
            "MID": "6240",
            "address": "江苏省苏州市张家港市新塍村新塍小区    ",
            "name": "新塍村村委",
            "Latitude": "31.90718",
            "n_car": "6",
            "UID": "2823"
        },
        {
            "Longitude": "120.63347",
            "MID": "5610",
            "address": "江苏省苏州张家港锦丰镇聚兴苑",
            "name": "江海汇精品酒店",
            "Latitude": "31.95772",
            "n_car": "6",
            "UID": "2824"
        },
        {
            "Longitude": "120.56372",
            "MID": "6238",
            "address": "江苏省苏州市张家港市新丰东路与033乡道交汇处东南50米  ",
            "name": "汤联村村委",
            "Latitude": "31.82449",
            "n_car": "6",
            "UID": "2825"
        },
        {
            "Longitude": "120.59811",
            "MID": "5629",
            "address": "江苏省苏州张家港合兴镇悦来花苑南侧",
            "name": "沙钢超市（合兴店）",
            "Latitude": "31.94098",
            "n_car": "6",
            "UID": "2826"
        },
        {
            "Longitude": "120.62974",
            "MID": "5661",
            "address": "江苏省苏州张家港市锦丰镇永新路沙钢宾馆旁边",
            "name": "沙钢超市（锦丰店）",
            "Latitude": "31.96313",
            "n_car": "6",
            "UID": "2827"
        },
        {
            "Longitude": "120.55665",
            "MID": "5604",
            "address": "江苏省苏州市张家港大新镇滨江路8号",
            "name": "滨江假日酒店",
            "Latitude": "31.96855",
            "n_car": "12",
            "UID": "2828"
        },
        {
            "Longitude": "120.55814",
            "MID": "5615",
            "address": "江苏省苏州张家港新长途车站南门对面",
            "name": "玲珑湾小区",
            "Latitude": "31.84626",
            "n_car": "6",
            "UID": "2829"
        },
        {
            "Longitude": "120.63415",
            "MID": "5656",
            "address": "江苏省苏州张家港市锦丰镇锦店路3号",
            "name": "皇家驿站商务宾馆",
            "Latitude": "31.96132",
            "n_car": "12",
            "UID": "2830"
        },
        {
            "Longitude": "120.64337",
            "MID": "5568",
            "address": "江苏省苏州市张家港市港丰公路与艾迪尔路交叉处",
            "name": "艾迪尔医疗器械公司",
            "Latitude": "31.9304",
            "n_car": "6",
            "UID": "2831"
        },
        {
            "Longitude": "120.62599",
            "MID": "6232",
            "address": "江苏省苏州市张家港市凤凰镇嘉泰路1号",
            "name": "都市118连锁酒店",
            "Latitude": "31.78201",
            "n_car": "6",
            "UID": "2832"
        },
        {
            "Longitude": "120.59434",
            "MID": "6236",
            "address": "江苏省苏州市张家港市合兴镇书院路与合兴路交汇处",
            "name": "金丽华大酒店",
            "Latitude": "31.92501",
            "n_car": "12",
            "UID": "2833"
        },
        {
            "Longitude": "120.62469",
            "MID": "6235",
            "address": "江苏省苏州市张家港市凤凰镇金谷路1号  ",
            "name": "金凤凰度假村",
            "Latitude": "31.78619",
            "n_car": "7",
            "UID": "2834"
        },
        {
            "Longitude": "120.58434",
            "MID": "6237",
            "address": "江苏省苏州市张家港市金港路20号     ",
            "name": "金荣酒店",
            "Latitude": "31.92501",
            "n_car": "12",
            "UID": "2835"
        },
        {
            "Longitude": "120.62937",
            "MID": "5601",
            "address": "江苏省苏州市张家港市锦丰镇锦店路与杨锦公路交叉口",
            "name": "锦庭商务宾馆",
            "Latitude": "31.96683",
            "n_car": "12",
            "UID": "2836"
        },
        {
            "Longitude": "120.64345",
            "MID": "5737",
            "address": "江苏省苏州市张家港市金桥路北200米",
            "name": "馨苑小区A区",
            "Latitude": "31.85304",
            "n_car": "6",
            "UID": "2837"
        },
        {
            "Longitude": "120.58684",
            "MID": "5627",
            "address": "江苏省苏州张家港合兴镇华昌路",
            "name": "龙府华庭小区",
            "Latitude": "31.93704",
            "n_car": "12",
            "UID": "2838"
        },
        {
            "Longitude": "120.60543",
            "MID": "5619",
            "address": "江苏省苏州张家港市印染开发区",
            "name": "龙潭湾度假村",
            "Latitude": "31.92885",
            "n_car": "12",
            "UID": "2839"
        },
        {
            "Longitude": "120.9495",
            "MID": "4185",
            "address": "江苏省苏州市昆山市人民南路1128号（近衡山路）\t",
            "name": "昆城广场",
            "Latitude": "31.366136",
            "n_car": "8",
            "UID": "2840"
        },
        {
            "Longitude": "121.002222",
            "MID": "5924",
            "address": "江苏省苏州市昆山市千灯镇玉溪西路168号",
            "name": "福立旺精密机电",
            "Latitude": "31.235555",
            "n_car": "3",
            "UID": "2841"
        },
        {
            "Longitude": "120.857222",
            "MID": "5902",
            "address": "江苏省苏州市昆山市人民南路昆城国贸2号楼1105室",
            "name": "远望谷物联网产业园",
            "Latitude": "31.146111",
            "n_car": "6",
            "UID": "2842"
        },
        {
            "Longitude": "120.915556",
            "MID": "5366",
            "address": "江苏省苏州市昆山市虹祺路1688号",
            "name": "风景英伦",
            "Latitude": "31.40528",
            "n_car": "6",
            "UID": "2843"
        },
        {
            "Longitude": "121.2627",
            "MID": "3300",
            "address": "江苏省苏州市太仓市飞马路93号",
            "name": "七星家苑",
            "Latitude": "31.56166",
            "n_car": "10",
            "UID": "2844"
        },
        {
            "Longitude": "121.07101",
            "MID": "1278",
            "address": "江苏省苏州市太仓市万丰田间八路",
            "name": "万丰村",
            "Latitude": "31.52388",
            "n_car": "5",
            "UID": "2845"
        },
        {
            "Longitude": "121.27743",
            "MID": "2292",
            "address": "江苏省苏州市太仓市滨江大道与郑和大街交叉口",
            "name": "上海九院浏河分院",
            "Latitude": "31.52013",
            "n_car": "16",
            "UID": "2846"
        },
        {
            "Longitude": "121.11822",
            "MID": "1230",
            "address": "江苏省苏州市太仓市城厢镇县府东街30号（近东仓路）",
            "name": "世代大酒店",
            "Latitude": "31.45802",
            "n_car": "2",
            "UID": "2847"
        },
        {
            "Longitude": "121.14826",
            "MID": "4392",
            "address": "江苏省太仓市浮桥镇红星路红星小区东",
            "name": "九曲社区服务中心",
            "Latitude": "31.61634",
            "n_car": "6",
            "UID": "2848"
        },
        {
            "Longitude": "121.10351",
            "MID": "3934",
            "address": "江苏省苏州市太仓市北京东路77号兰德莱茵酒店停车场出入口附近",
            "name": "兰德莱茵酒店",
            "Latitude": "31.48645",
            "n_car": "4",
            "UID": "2849"
        },
        {
            "Longitude": "121.14042",
            "MID": "2042",
            "address": "江苏省苏州市太仓市郑和东路88号（近四通南路）",
            "name": "凯明科技园",
            "Latitude": "31.47119",
            "n_car": "8",
            "UID": "2850"
        },
        {
            "Longitude": "121.265801",
            "MID": "3857",
            "address": "江苏省苏州市太仓市郑和东路37号",
            "name": "北上海假日广场",
            "Latitude": "31.512998",
            "n_car": "6",
            "UID": "2851"
        },
        {
            "Longitude": "121.18001",
            "MID": "5557",
            "address": "江苏省苏州市太仓市银港路88号",
            "name": "协鑫光伏",
            "Latitude": "31.61751",
            "n_car": "10",
            "UID": "2852"
        },
        {
            "Longitude": "121.25886",
            "MID": "4394",
            "address": "江苏省太仓市浮桥镇协鑫东路到底",
            "name": "协鑫电厂",
            "Latitude": "31.58622",
            "n_car": "6",
            "UID": "2853"
        },
        {
            "Longitude": "121.02968",
            "MID": "2460",
            "address": "江苏省苏州市太仓市凤北路89号",
            "name": "双凤农商行",
            "Latitude": "31.52296",
            "n_car": "5",
            "UID": "2854"
        },
        {
            "Longitude": "121.058151",
            "MID": "3873",
            "address": "江苏省苏州市太仓市新卫苑小区工作站东侧",
            "name": "双凤新卫村",
            "Latitude": "31.443038",
            "n_car": "10",
            "UID": "2855"
        },
        {
            "Longitude": "121.208055",
            "MID": "5559",
            "address": "江苏省苏州市太仓市和平路",
            "name": "和平花园社区",
            "Latitude": "31.597777",
            "n_car": "6",
            "UID": "2856"
        },
        {
            "Longitude": "121.25394",
            "MID": "3724",
            "address": "江苏省苏州市太仓市滨海路28号",
            "name": "国华电厂",
            "Latitude": "31.58269",
            "n_car": "10",
            "UID": "2857"
        },
        {
            "Longitude": "121.04817",
            "MID": "2458",
            "address": "江苏省苏州市太仓市沙南西路188号",
            "name": "天竹园山庄",
            "Latitude": "31.55606",
            "n_car": "10",
            "UID": "2858"
        },
        {
            "Longitude": "121.11125",
            "MID": "2056",
            "address": "江苏省苏州市太仓市上海西路77号",
            "name": "太仓体育馆",
            "Latitude": "31.44714",
            "n_car": "10",
            "UID": "2859"
        },
        {
            "Longitude": "121.05302",
            "MID": "4249",
            "address": "江苏省苏州市太仓市339省道附近",
            "name": "太仓再生资源有限公司",
            "Latitude": "31.44747",
            "n_car": "6",
            "UID": "2860"
        },
        {
            "Longitude": "121.13593",
            "MID": "2052",
            "address": "江苏省苏州市太仓市上海东路198号（近娄江南路）",
            "name": "太仓农商行新总行",
            "Latitude": "31.46367",
            "n_car": "21",
            "UID": "2861"
        },
        {
            "Longitude": "121.099231",
            "MID": "3861",
            "address": "江苏省苏州市人民南路162号",
            "name": "太仓创智科技园",
            "Latitude": "31.454308",
            "n_car": "10",
            "UID": "2862"
        },
        {
            "Longitude": "121.027777",
            "MID": "5905",
            "address": "江苏省苏州市太仓市天宇电子有限公司",
            "name": "太仓天宇电子",
            "Latitude": "31.570555",
            "n_car": "6",
            "UID": "2863"
        },
        {
            "Longitude": "121.011666",
            "MID": "5903",
            "address": "江苏省苏州市太仓市双凤镇勤力村",
            "name": "太仓市勤力村居委会",
            "Latitude": "31.503333",
            "n_car": "4",
            "UID": "2864"
        },
        {
            "Longitude": "121.191467",
            "MID": "3812",
            "address": "江苏省苏州市太仓市银港路59号",
            "name": "太仓市生物港",
            "Latitude": "31.622107",
            "n_car": "7",
            "UID": "2865"
        },
        {
            "Longitude": "121.14463",
            "MID": "2054",
            "address": "江苏省苏州市太仓市常胜南路58号",
            "name": "太仓市第一人民医院",
            "Latitude": "31.46245",
            "n_car": "10",
            "UID": "2866"
        },
        {
            "Longitude": "121.11518",
            "MID": "2036",
            "address": "江苏省苏州市太仓市东仓南路101号",
            "name": "太仓市第三人民医院",
            "Latitude": "31.45841",
            "n_car": "6",
            "UID": "2867"
        },
        {
            "Longitude": "121.154722",
            "MID": "5906",
            "address": "江苏省苏州市太仓市沙溪镇岳王临港南路525号",
            "name": "太仓平谦现代产业园",
            "Latitude": "31.537777",
            "n_car": "6",
            "UID": "2868"
        },
        {
            "Longitude": "121.156111",
            "MID": "5897",
            "address": "江苏省苏州市太仓市港口开发区滨江大道158号",
            "name": "太仓武港码头",
            "Latitude": "31.662501",
            "n_car": "6",
            "UID": "2869"
        },
        {
            "Longitude": "121.20342",
            "MID": "3174",
            "address": "江苏省苏州市太仓市浮桥镇港口开发区陆公路1号",
            "name": "太仓港同高院",
            "Latitude": "31.62629",
            "n_car": "13",
            "UID": "2870"
        },
        {
            "Longitude": "121.043888",
            "MID": "5904",
            "address": "江苏省苏州市太仓市双凤镇新杨路1号",
            "name": "太仓辉泰汽配",
            "Latitude": "31.510277",
            "n_car": "4",
            "UID": "2871"
        },
        {
            "Longitude": "121.11308",
            "MID": "2050",
            "address": "江苏省苏州市太仓市太平南路27号（近上海西路）",
            "name": "太仓（南园）农商行",
            "Latitude": "31.44826",
            "n_car": "16",
            "UID": "2872"
        },
        {
            "Longitude": "121.10687",
            "MID": "3298",
            "address": "江苏省苏州市太仓市县府街6号",
            "name": "娄东宾馆",
            "Latitude": "31.45368",
            "n_car": "10",
            "UID": "2873"
        },
        {
            "Longitude": "121.064781",
            "MID": "3912",
            "address": "江苏省苏州市太仓市璜泾镇孟河村村委东约100米",
            "name": "孟河村社区服务中心",
            "Latitude": "31.665858",
            "n_car": "5",
            "UID": "2874"
        },
        {
            "Longitude": "121.177505",
            "MID": "3806",
            "address": "江苏省苏州市太仓市中小企业创业园",
            "name": "富桥实业",
            "Latitude": "31.591126",
            "n_car": "10",
            "UID": "2875"
        },
        {
            "Longitude": "121.100021",
            "MID": "3858",
            "address": "江苏省苏州市北漳泾路88号（近重庆路）",
            "name": "富玛有色部件",
            "Latitude": "31.427058",
            "n_car": "3",
            "UID": "2876"
        },
        {
            "Longitude": "121.20784",
            "MID": "3172",
            "address": "江苏省苏州市太仓市瑞江路（太仓花漫九里别墅往北，进入瑞江路，道路左侧）",
            "name": "康莱特地产花漫九里",
            "Latitude": "31.62257",
            "n_car": "7",
            "UID": "2877"
        },
        {
            "Longitude": "121.192501",
            "MID": "5561",
            "address": "江苏省苏州市太仓市浮桥镇太新路",
            "name": "建红社区",
            "Latitude": "31.591111",
            "n_car": "6",
            "UID": "2878"
        },
        {
            "Longitude": "121.06404",
            "MID": "2464",
            "address": "江苏省苏州市太仓市沙溪镇玄恭路",
            "name": "归庄农商行",
            "Latitude": "31.61488",
            "n_car": "5",
            "UID": "2879"
        },
        {
            "Longitude": "121.07587",
            "MID": "2298",
            "address": "江苏省苏州市太仓市青岛西路38号",
            "name": "新区科技加速A区",
            "Latitude": "31.47937",
            "n_car": "7",
            "UID": "2880"
        },
        {
            "Longitude": "121.08788",
            "MID": "2296",
            "address": "江苏省苏州市太仓市青岛东路1号",
            "name": "新区科技加速B区",
            "Latitude": "31.48502",
            "n_car": "5",
            "UID": "2881"
        },
        {
            "Longitude": "121.19824",
            "MID": "2466",
            "address": "江苏省苏州市太仓市丁泾路56号",
            "name": "新塘农商行",
            "Latitude": "31.5287",
            "n_car": "4",
            "UID": "2882"
        },
        {
            "Longitude": "121.080021",
            "MID": "3859",
            "address": "江苏省苏州市太仓市新鹿花园二区",
            "name": "新明社区",
            "Latitude": "31.696788",
            "n_car": "6",
            "UID": "2883"
        },
        {
            "Longitude": "121.039111",
            "MID": "3876",
            "address": "江苏省苏州市太仓市双凤镇星湖路105号",
            "name": "新湖社区中心",
            "Latitude": "31.476608",
            "n_car": "8",
            "UID": "2884"
        },
        {
            "Longitude": "121.26254",
            "MID": "2058",
            "address": "江苏省苏州市太仓市闸北路168号（近郑和大街 ）",
            "name": "新鑫海鲜城",
            "Latitude": "31.51462",
            "n_car": "6",
            "UID": "2885"
        },
        {
            "Longitude": "121.0293",
            "MID": "3875",
            "address": "江苏省苏州市太仓市双凤新闯村村委会",
            "name": "新闯村社区中心",
            "Latitude": "31.440198",
            "n_car": "8",
            "UID": "2886"
        },
        {
            "Longitude": "121.070521",
            "MID": "3874",
            "address": "江苏省苏州市太仓市城厢镇弇山西路137号",
            "name": "方舟标识有限公司",
            "Latitude": "31.447229",
            "n_car": "4",
            "UID": "2887"
        },
        {
            "Longitude": "121.15557",
            "MID": "3170",
            "address": "江苏省苏州市太仓市浮桥镇时崖山路",
            "name": "时思农商行",
            "Latitude": "31.6438",
            "n_car": "5",
            "UID": "2888"
        },
        {
            "Longitude": "121.107841",
            "MID": "3862",
            "address": "江苏省苏州市太仓市太平南路78号",
            "name": "星辰大酒店",
            "Latitude": "31.458718",
            "n_car": "8",
            "UID": "2889"
        },
        {
            "Longitude": "121.08834",
            "MID": "2294",
            "address": "江苏省苏州市太仓市郑和西路与204国道交汇处",
            "name": "月星家居",
            "Latitude": "31.44914",
            "n_car": "5",
            "UID": "2890"
        },
        {
            "Longitude": "121.04034",
            "MID": "1277",
            "address": "江苏省苏州市太仓市杨漕村草王线",
            "name": "杨漕村村委会",
            "Latitude": "31.67823",
            "n_car": "5",
            "UID": "2891"
        },
        {
            "Longitude": "121.12663",
            "MID": "2462",
            "address": "江苏省苏州市太仓市长安路16号（近四通路）",
            "name": "板桥农商行",
            "Latitude": "31.49158",
            "n_car": "3",
            "UID": "2892"
        },
        {
            "Longitude": "121.27739",
            "MID": "3725",
            "address": "江苏省苏州市太仓市珠江路7号",
            "name": "格隆博金属有限公司",
            "Latitude": "31.50115",
            "n_car": "6",
            "UID": "2893"
        },
        {
            "Longitude": "121.156944",
            "MID": "5900",
            "address": "江苏省苏州市太仓市岳王镇新建路10号",
            "name": "桑林汽配城",
            "Latitude": "31.551111",
            "n_car": "3",
            "UID": "2894"
        },
        {
            "Longitude": "121.09193",
            "MID": "2048",
            "address": "江苏省苏州市太仓市太平北路111号（近宁波西路）",
            "name": "森茂汽车城",
            "Latitude": "31.47768",
            "n_car": "9",
            "UID": "2895"
        },
        {
            "Longitude": "121.11922",
            "MID": "2046",
            "address": "江苏省苏州市太仓市朝阳路10号（近锦州路）",
            "name": "沛波灯饰厂",
            "Latitude": "31.44597",
            "n_car": "3",
            "UID": "2896"
        },
        {
            "Longitude": "121.27156",
            "MID": "3726",
            "address": "江苏省苏州市太仓市长江西路1号（近闸南路）",
            "name": "浏南社区",
            "Latitude": "31.5022",
            "n_car": "4",
            "UID": "2897"
        },
        {
            "Longitude": "121.25331",
            "MID": "2062",
            "address": "江苏省苏州市太仓市飞马路284号（近龙江路）",
            "name": "浏家港农商行",
            "Latitude": "31.55891",
            "n_car": "5",
            "UID": "2898"
        },
        {
            "Longitude": "121.2565",
            "MID": "3220",
            "address": "江苏省苏州市太仓市郑和北路188号",
            "name": "浏河新小地方大酒店",
            "Latitude": "31.50555",
            "n_car": "6",
            "UID": "2899"
        },
        {
            "Longitude": "121.27127",
            "MID": "3214",
            "address": "江苏省苏州市太仓市郑和大街99号",
            "name": "浏河镇政府",
            "Latitude": "31.51674",
            "n_car": "8",
            "UID": "2900"
        },
        {
            "Longitude": "121.19696",
            "MID": "4390",
            "address": "江苏省太仓市浮桥镇七丫路明珠花园旁",
            "name": "浮南社区服务中心 ",
            "Latitude": "31.58748",
            "n_car": "5",
            "UID": "2901"
        },
        {
            "Longitude": "121.20247",
            "MID": "4391",
            "address": "江苏省太仓市浮桥镇光华路与龙江路路口",
            "name": "港区五洋滨江广场",
            "Latitude": "31.6179",
            "n_car": "6",
            "UID": "2902"
        },
        {
            "Longitude": "121.19114",
            "MID": "2040",
            "address": "江苏省苏州市太仓市安江路58号（近陆公路）",
            "name": "港区嘉礼酒店",
            "Latitude": "31.61748",
            "n_car": "6",
            "UID": "2903"
        },
        {
            "Longitude": "121.204994",
            "MID": "3815",
            "address": "江苏省苏州市太仓市北环路1号",
            "name": "港口开发区管委会",
            "Latitude": "31.623959",
            "n_car": "15",
            "UID": "2904"
        },
        {
            "Longitude": "121.16158",
            "MID": "3803",
            "address": "江苏省苏州市太仓市吴淞浜路88号",
            "name": "港福人林开发公司",
            "Latitude": "31.60705",
            "n_car": "7",
            "UID": "2905"
        },
        {
            "Longitude": "121.26815",
            "MID": "2030",
            "address": "江苏省苏州市太仓市浏河郑和大街38号（近滨江大道）",
            "name": "滨江花园大酒店",
            "Latitude": "31.51498",
            "n_car": "6",
            "UID": "2906"
        },
        {
            "Longitude": "121.18241",
            "MID": "4393",
            "address": "江苏省太仓市浮桥镇九牌路北约500米",
            "name": "牌楼社区服务中心",
            "Latitude": "31.56123",
            "n_car": "6",
            "UID": "2907"
        },
        {
            "Longitude": "121.057731",
            "MID": "3913",
            "address": "江苏省苏州市太仓市璜泾镇湘王路36号",
            "name": "王秀社区服务中心",
            "Latitude": "31.642998",
            "n_car": "5",
            "UID": "2908"
        },
        {
            "Longitude": "121.16749",
            "MID": "1086",
            "address": "江苏省苏州市太仓市太仓现代农业园",
            "name": "玫瑰庄园酒店",
            "Latitude": "31.5511",
            "n_car": "10",
            "UID": "2909"
        },
        {
            "Longitude": "121.10154",
            "MID": "3264",
            "address": "江苏省苏州市太仓市璜泾镇玄武路44号",
            "name": "璜泾人民医院",
            "Latitude": "31.65337",
            "n_car": "8",
            "UID": "2910"
        },
        {
            "Longitude": "121.101091",
            "MID": "3860",
            "address": "江苏省苏州市璜泾镇园林路2号（近玄武路）",
            "name": "璜泾镇政府",
            "Latitude": "31.651548",
            "n_car": "8",
            "UID": "2911"
        },
        {
            "Longitude": "121.09944",
            "MID": "5558",
            "address": "江苏省苏州市太仓市荣文路文体中心",
            "name": "璜泾镇文体中心",
            "Latitude": "31.64861",
            "n_car": "8",
            "UID": "2912"
        },
        {
            "Longitude": "121.104445",
            "MID": "5563",
            "address": "江苏省苏州市太仓市338省道新联村村委会",
            "name": "璜泾镇新联村村委会",
            "Latitude": "31.673611",
            "n_car": "5",
            "UID": "2913"
        },
        {
            "Longitude": "121.11389",
            "MID": "5567",
            "address": "江苏省苏州市太仓市璜泾镇永乐村社区服务中心",
            "name": "璜泾镇永乐村村委会",
            "Latitude": "31.65111",
            "n_car": "5",
            "UID": "2914"
        },
        {
            "Longitude": "121.0697",
            "MID": "2456",
            "address": "江苏省苏州市太仓市电站线与生态园路口南侧150米",
            "name": "电站村生态园",
            "Latitude": "31.50557",
            "n_car": "10",
            "UID": "2915"
        },
        {
            "Longitude": "121.06732",
            "MID": "1229",
            "address": "江苏省苏州市太仓市城厢镇工业园区弇山西路168号（近通海路）",
            "name": "肇丰电器",
            "Latitude": "31.44672",
            "n_car": "4",
            "UID": "2916"
        },
        {
            "Longitude": "121.10775",
            "MID": "546",
            "address": "江苏省苏州市太仓市经济开发区舍弗勒路1-3号",
            "name": "舍弗勒（太仓）",
            "Latitude": "31.473728",
            "n_car": "3",
            "UID": "2917"
        },
        {
            "Longitude": "121.13938",
            "MID": "2066",
            "address": "江苏省苏州市太仓市通港东路（浮桥镇红星小区）",
            "name": "芦沟苑农商行",
            "Latitude": "31.61422",
            "n_car": "4",
            "UID": "2918"
        },
        {
            "Longitude": "121.09623",
            "MID": "3168",
            "address": "江苏省苏州市太仓市城厢镇人民北路11号",
            "name": "花园酒店",
            "Latitude": "31.45558",
            "n_car": "5",
            "UID": "2919"
        },
        {
            "Longitude": "121.16888",
            "MID": "5545",
            "address": "江苏省苏州市太仓市太仓港区沪太新路400号",
            "name": "苏州隆兴物流园",
            "Latitude": "31.60972",
            "n_car": "8",
            "UID": "2920"
        },
        {
            "Longitude": "121.13434",
            "MID": "2300",
            "address": "江苏省苏州市太仓市健雄路9号",
            "name": "菁英公寓",
            "Latitude": "31.41793",
            "n_car": "12",
            "UID": "2921"
        },
        {
            "Longitude": "120.992407",
            "MID": "3204",
            "address": "江苏省苏州市太仓市双园路华丽大道888号",
            "name": "菲尼克斯度假村",
            "Latitude": "31.509257",
            "n_car": "10",
            "UID": "2922"
        },
        {
            "Longitude": "121.24125",
            "MID": "3176",
            "address": "江苏省苏州市太仓市南环路与滨江大道交（叉口向东200米）",
            "name": "郑和公园",
            "Latitude": "31.60357",
            "n_car": "4",
            "UID": "2923"
        },
        {
            "Longitude": "121.20385",
            "MID": "1245",
            "address": "江苏省苏州市太仓市港口开发区北环路18号（近龙江路）",
            "name": "郑和国际酒店",
            "Latitude": "31.62164",
            "n_car": "14",
            "UID": "2924"
        },
        {
            "Longitude": "121.08689",
            "MID": "3302",
            "address": "江苏省苏州市太仓市金仓湖公园西门",
            "name": "金仓湖公园",
            "Latitude": "31.51808",
            "n_car": "18",
            "UID": "2925"
        },
        {
            "Longitude": "121.12313",
            "MID": "1246",
            "address": "江苏省苏州市太仓市上海东路89号（近东仓南路）",
            "name": "锦江国际酒店",
            "Latitude": "31.45375",
            "n_car": "6",
            "UID": "2926"
        },
        {
            "Longitude": "121.25108",
            "MID": "2068",
            "address": "江苏省苏州市太仓市浏河镇郑和东路102号（近沪太新路）",
            "name": "长江口假日酒店",
            "Latitude": "31.50501",
            "n_car": "7",
            "UID": "2927"
        },
        {
            "Longitude": "121.26588",
            "MID": "3727",
            "address": "江苏省苏州市太仓市石化路1号（近滨江南路）",
            "name": "阳鸿石化有限公司",
            "Latitude": "31.56778",
            "n_car": "5",
            "UID": "2928"
        },
        {
            "Longitude": "121.18368",
            "MID": "2064",
            "address": "江苏省苏州市太仓市中市路48号（近花园街）",
            "name": "陆渡农商行",
            "Latitude": "31.47156",
            "n_car": "6",
            "UID": "2929"
        },
        {
            "Longitude": "121.18266",
            "MID": "1231",
            "address": "江苏省苏州市太仓市陆渡镇郑和中路78号（近陆嘉北路）",
            "name": "陆渡宾馆",
            "Latitude": "31.47842",
            "n_car": "15",
            "UID": "2930"
        },
        {
            "Longitude": "121.128988",
            "MID": "2060",
            "address": "江苏省苏州市太仓市郑和中路318号",
            "name": "雅鹿工厂店",
            "Latitude": "31.468567",
            "n_car": "5",
            "UID": "2931"
        },
        {
            "Longitude": "121.0719",
            "MID": "3222",
            "address": "江苏省苏州市太仓市关皇桥东堍",
            "name": "鹿河农商行",
            "Latitude": "31.69787",
            "n_car": "6",
            "UID": "2932"
        }
    ]
}