{
    "network_node_evcard": [
        {
            "Latitude": "31.920068",
            "Longitude": "117.322936",
            "UID": "3392",
            "name": "蓝领公寓",
            "address": "安徽省合肥市瑶海区天水路蓝领公寓5号楼门前停车场",
            "n_car": "12",
            "MID": "5319"
        },
        {
            "Latitude": "31.928773",
            "Longitude": "117.274208",
            "UID": "3393",
            "name": "连水路",
            "address": "安徽省合肥市庐阳区阜阳北路与连水路交口往南100米",
            "n_car": "11",
            "MID": "5666"
        },
        {
            "Latitude": "31.937519",
            "Longitude": "117.269396",
            "UID": "3394",
            "name": "长荣医院",
            "address": "安徽省合肥市庐阳区阜阳北路与天水路交口东北角",
            "n_car": "8",
            "MID": "5598"
        },
        {
            "Latitude": "31.781341",
            "Longitude": "117.198047",
            "UID": "3395",
            "name": "中环云邸小区",
            "address": "安徽省合肥市蜀山区石门路与引针路路口东20米",
            "n_car": "10",
            "MID": "5339"
        },
        {
            "Latitude": "31.852383",
            "Longitude": "117.165618",
            "UID": "3396",
            "name": "军官培训中心酒店",
            "address": "安徽省合肥市蜀山区合六路99号军官培训中心酒店",
            "n_car": "6",
            "MID": "5660"
        },
        {
            "Latitude": "31.825034",
            "Longitude": "117.223015",
            "UID": "3397",
            "name": "合肥市政务中心",
            "address": "安徽省合肥市蜀山区行政服务中心外环路P5停车场",
            "n_car": "12",
            "MID": "5695"
        },
        {
            "Latitude": "31.810297",
            "Longitude": "117.205822",
            "UID": "3398",
            "name": "天和园小区",
            "address": "安徽省合肥市蜀山区祁门路1779号天和园小区",
            "n_car": "10",
            "MID": "5664"
        },
        {
            "Latitude": "31.825989",
            "Longitude": "117.216669",
            "UID": "3399",
            "name": "安德兴业大厦",
            "address": "安徽省合肥市蜀山区怀宁路安德兴业大厦",
            "n_car": "6",
            "MID": "5908"
        },
        {
            "Latitude": "31.85414",
            "Longitude": "117.261602",
            "UID": "3400",
            "name": "梅山饭店",
            "address": "合肥市蜀山区梅山路125号梅山饭店院内",
            "n_car": "3",
            "MID": "5197"
        },
        {
            "Latitude": "31.854824",
            "Longitude": "117.203007",
            "UID": "3401",
            "name": "浙商瑞雅国际酒店",
            "address": "安徽省合肥市蜀山区科学大道与天波路路口",
            "n_car": "8",
            "MID": "5659"
        },
        {
            "Latitude": "31.810871",
            "Longitude": "117.298223",
            "UID": "3402",
            "name": "万通汽修葛大店校区",
            "address": "安徽省合肥市包河区包河大道与望湖中路路口南200米万通汽修校内",
            "n_car": "3",
            "MID": "5873"
        },
        {
            "Latitude": "31.717938",
            "Longitude": "117.278178",
            "UID": "3403",
            "name": "五矿大厦",
            "address": "安徽省合肥市徽州大道与武汉路交口五矿矿业大厦南门西100米",
            "n_car": "10",
            "MID": "5901"
        },
        {
            "Latitude": "31.797415",
            "Longitude": "117.302718",
            "UID": "3404",
            "name": "包河区政务中心",
            "address": "安徽省合肥市包河区包河大道118号包河区人民政府政务中心",
            "n_car": "3",
            "MID": "5443"
        },
        {
            "Latitude": "31.795478",
            "Longitude": "117.295707",
            "UID": "3405",
            "name": "合肥旅游集散中心",
            "address": "繁华大道与庐州大道路口西100米合肥旅游集散中心院内（中国石油加油站隔壁）",
            "n_car": "3",
            "MID": "4926"
        },
        {
            "Latitude": "31.814899",
            "Longitude": "117.293519",
            "UID": "3406",
            "name": "望呈路口点",
            "address": "安徽省合肥市包河区望湖北路与呈坎路路口西北角",
            "n_car": "7",
            "MID": "5716"
        },
        {
            "Latitude": "31.873812",
            "Longitude": "117.486493",
            "UID": "3407",
            "name": "肥东畅安检测站",
            "address": "安徽省合肥市肥东县长江东路与龙城路路口东100米畅安检测站院内东南角",
            "n_car": "8",
            "MID": "5867"
        },
        {
            "Latitude": "31.725358",
            "Longitude": "117.157435",
            "UID": "3408",
            "name": "麦肯希酒店",
            "address": "安徽省合肥市肥西县金寨南路88号麦肯希酒店",
            "n_car": "8",
            "MID": "5662"
        }
    ]
}