{
    "network_node_evcard": [
        {
            "Latitude": "38.435081",
            "Longitude": "112.766808",
            "UID": "4",
            "name": "创奇学校内部",
            "address": "忻州市忻府区团结东路18号",
            "n_car": "2",
            "MID": "4767"
        },
        {
            "Latitude": "38.43057",
            "Longitude": "112.69266",
            "UID": "5",
            "name": "创腾商贸",
            "address": "山西省忻州市忻府区牧马北路七号",
            "n_car": "5",
            "MID": "4236"
        },
        {
            "Latitude": "38.471739",
            "Longitude": "112.578181",
            "UID": "6",
            "name": "北合索温泉",
            "address": "合索乡北合索村千亩大棚实验园区",
            "n_car": "6",
            "MID": "4737"
        },
        {
            "Latitude": "38.536737",
            "Longitude": "112.604701",
            "UID": "7",
            "name": "奇村广场",
            "address": "山西省忻州市忻府区奇村镇中心广场",
            "n_car": "5",
            "MID": "5371"
        },
        {
            "Latitude": "38.540825",
            "Longitude": "112.601436",
            "UID": "8",
            "name": "奇村镇政府",
            "address": "山西省忻州市忻府区奇村镇人民政府门口",
            "n_car": "3",
            "MID": "5372"
        },
        {
            "Latitude": "38.435305",
            "Longitude": "112.766165",
            "UID": "9",
            "name": "山西创奇学校",
            "address": "山西省忻州市忻府区团结东路18号",
            "n_car": "3",
            "MID": "4439"
        },
        {
            "Latitude": "38.419919",
            "Longitude": "112.724803",
            "UID": "10",
            "name": "忻州市体育场",
            "address": "山西省忻州市忻府区七一南路与利民西街交叉口西南",
            "n_car": "5",
            "MID": "5588"
        },
        {
            "Latitude": "38.43332",
            "Longitude": "112.724686",
            "UID": "11",
            "name": "忻州市供气供热管理处",
            "address": "山西省忻州市忻府区七一北路与学府街交叉口东150米",
            "n_car": "5",
            "MID": "5368"
        },
        {
            "Latitude": "38.431904",
            "Longitude": "112.69232",
            "UID": "12",
            "name": "忻州调度中心",
            "address": "山西省忻州市忻府区解原乡牧马北路",
            "n_car": "0",
            "MID": "6252"
        },
        {
            "Latitude": "38.445477",
            "Longitude": "112.731381",
            "UID": "13",
            "name": "忻府区人民公园",
            "address": "山西省忻州市忻府区新建路东门",
            "n_car": "5",
            "MID": "4440"
        },
        {
            "Latitude": "38.497518",
            "Longitude": "112.692842",
            "UID": "14",
            "name": "愉园温泉度假村",
            "address": "山西省忻州市忻府区顿村度假路2号",
            "n_car": "5",
            "MID": "4792"
        },
        {
            "Latitude": "38.453303",
            "Longitude": "112.738332",
            "UID": "15",
            "name": "汉鼎酒店",
            "address": "山西省忻州市忻府区开发区九源东街",
            "n_car": "3",
            "MID": "4781"
        },
        {
            "Latitude": "38.303479",
            "Longitude": "112.826401",
            "UID": "16",
            "name": "禹王洞",
            "address": "山西省忻州市忻府区西张乡霸沟",
            "n_car": "3",
            "MID": "5049"
        },
        {
            "Latitude": "38.456797",
            "Longitude": "112.73299",
            "UID": "17",
            "name": "紫檀商务酒店",
            "address": "山西省忻州市忻府区新建北路与汾源街交汇处北150米路东",
            "n_car": "5",
            "MID": "4789"
        },
        {
            "Latitude": "38.442101",
            "Longitude": "112.7263",
            "UID": "18",
            "name": "蒲公英快捷酒店",
            "address": "山西省忻州市忻府区雁门大道与七一北路交叉口东行350米路北（雁门大道中段）",
            "n_car": "5",
            "MID": "4670"
        },
        {
            "Latitude": "38.426781",
            "Longitude": "112.6959",
            "UID": "19",
            "name": "银海酒店",
            "address": "山西省忻州市忻府区和平西街以北",
            "n_car": "1",
            "MID": "4668"
        }
    ]
}