{
    "network_node_evcard": [
        {
            "Longitude": "113.30953",
            "MID": "4822",
            "address": "广州市越秀区广州大道中289号289艺术园区东门",
            "name": "289艺术园区东门",
            "Latitude": "23.12611",
            "n_car": "2",
            "UID": "3466"
        },
        {
            "Longitude": "113.3082",
            "MID": "4821",
            "address": "广州市越秀区广州大道中289号289艺术园区北门",
            "name": "289艺术园区北门",
            "Latitude": "23.1266",
            "n_car": "3",
            "UID": "3467"
        },
        {
            "Longitude": "113.34007",
            "MID": "5786",
            "address": "广东省广州市海珠区华洲街土华路1号",
            "name": "樱花小筑酒店（土华）",
            "Latitude": "23.06763",
            "n_car": "30",
            "UID": "3468"
        },
        {
            "Longitude": "113.33805",
            "MID": "5133",
            "address": "广州市天河区五山路141-2号（尚德大厦负2层053-060车位）",
            "name": "尚德大厦",
            "Latitude": "23.14196",
            "n_car": "7",
            "UID": "3469"
        },
        {
            "Longitude": "113.40739",
            "MID": "6245",
            "address": "广东省广州市天河区大观路385号",
            "name": "得利达广场（大观路）",
            "Latitude": "23.16514",
            "n_car": "5",
            "UID": "3470"
        },
        {
            "Longitude": "113.40829",
            "MID": "4877",
            "address": "广东省广州市天河区田头岗二路一横街4号",
            "name": "皓业园区外（华观路）",
            "Latitude": "23.17072",
            "n_car": "3",
            "UID": "3471"
        },
        {
            "Longitude": "113.40874",
            "MID": "5213",
            "address": " 广东省广州市天河区田头岗二路一横街4号",
            "name": "皓业园区（华观路）",
            "Latitude": "23.17047",
            "n_car": "7",
            "UID": "3472"
        },
        {
            "Longitude": "113.24248",
            "MID": "5697",
            "address": "广州市白云区石马桃红西街2号金塬广场A",
            "name": "金塬广场（桃红西街）",
            "Latitude": "23.2679",
            "n_car": "5",
            "UID": "3473"
        },
        {
            "Longitude": "113.446946",
            "MID": "4538",
            "address": "广东省广州市萝岗区南云五路3号吉山东社区",
            "name": "高澜节能科技",
            "Latitude": "23.145113",
            "n_car": "0",
            "UID": "3474"
        }
    ]
}