{
    "network_node_evcard": [
        {
            "Latitude": "32.18657",
            "Longitude": "119.65975",
            "UID": "2971",
            "name": "7天连锁酒店",
            "address": "江苏省镇江市京口区通港路11号",
            "n_car": "3",
            "MID": "5555"
        },
        {
            "Latitude": "32.14338",
            "Longitude": "119.6808",
            "UID": "2972",
            "name": "丁岗镇政府",
            "address": "江苏省镇江市京口区大港振岗路38号",
            "n_car": "3",
            "MID": "5551"
        },
        {
            "Latitude": "32.156229",
            "Longitude": "119.708081",
            "UID": "2973",
            "name": "中瑞生态产业园",
            "address": "江苏省镇江市京口区大港港南路345号",
            "n_car": "5",
            "MID": "5966"
        },
        {
            "Latitude": "32.14851",
            "Longitude": "119.50787",
            "UID": "2974",
            "name": "丹徒高新园管委会",
            "address": "江苏省镇江市京口区冷遹路168号",
            "n_car": "3",
            "MID": "4376"
        },
        {
            "Latitude": "32.20747",
            "Longitude": "119.443303",
            "UID": "2975",
            "name": "八佰伴二层停车场",
            "address": "江苏省镇江市京口区中山东路288号",
            "n_car": "6",
            "MID": "6255"
        },
        {
            "Latitude": "32.198075",
            "Longitude": "119.496345",
            "UID": "2976",
            "name": "凯旋国际",
            "address": "江苏省镇江市京口区学府路126号",
            "n_car": "5",
            "MID": "5969"
        },
        {
            "Latitude": "32.155278",
            "Longitude": "119.627518",
            "UID": "2977",
            "name": "天奈材料科技有限公司",
            "address": "江苏省镇江市京口区青龙山路113号",
            "n_car": "3",
            "MID": "6269"
        },
        {
            "Latitude": "32.14525",
            "Longitude": "119.7037",
            "UID": "2978",
            "name": "平昌大厦",
            "address": "江苏省镇江新区平昌新城平昌路118号",
            "n_car": "6",
            "MID": "4377"
        },
        {
            "Latitude": "32.14178",
            "Longitude": "119.70741",
            "UID": "2979",
            "name": "平昌邻里中心",
            "address": "江苏省镇江市京口区平昌新城瑞城路8号",
            "n_car": "6",
            "MID": "5544"
        },
        {
            "Latitude": "32.18739",
            "Longitude": "119.67043",
            "UID": "2980",
            "name": "新区人力资源市场",
            "address": "江苏省镇江市新区港中路111号",
            "n_car": "6",
            "MID": "4901"
        },
        {
            "Latitude": "32.15869",
            "Longitude": "119.61048",
            "UID": "2981",
            "name": "新材料产业园",
            "address": "江苏省镇江市京口区金港大道180号附近",
            "n_car": "5",
            "MID": "4676"
        },
        {
            "Latitude": "32.15944",
            "Longitude": "119.50919",
            "UID": "2982",
            "name": "明都大饭店",
            "address": "江苏省镇江市京口区智慧大道468号",
            "n_car": "6",
            "MID": "4681"
        },
        {
            "Latitude": "32.15914",
            "Longitude": "119.49123",
            "UID": "2983",
            "name": "智能装备产业园",
            "address": "江苏省镇江市京口区四平山路6号",
            "n_car": "7",
            "MID": "4680"
        },
        {
            "Latitude": "32.16166",
            "Longitude": "119.65775",
            "UID": "2984",
            "name": "江苏大港股份有限公司",
            "address": "镇江新区通港路1号",
            "n_car": "4",
            "MID": "5169"
        },
        {
            "Latitude": "32.19722",
            "Longitude": "119.66184",
            "UID": "2985",
            "name": "港务集团大港分公司",
            "address": "江苏省镇江市京口区大港临江西路",
            "n_car": "5",
            "MID": "5576"
        },
        {
            "Latitude": "32.17826",
            "Longitude": "119.65894",
            "UID": "2986",
            "name": "物流大厦东侧停车场",
            "address": "江苏省镇江新区通港路96号",
            "n_car": "8",
            "MID": "4139"
        },
        {
            "Latitude": "32.17788",
            "Longitude": "119.65695",
            "UID": "2987",
            "name": "物流大厦西侧停车场",
            "address": "江苏省镇江市新区通港路96号",
            "n_car": "8",
            "MID": "5211"
        },
        {
            "Latitude": "32.13731",
            "Longitude": "119.69885",
            "UID": "2988",
            "name": "玖珑城购物公园",
            "address": "江苏省镇江市新区五峰山路199号",
            "n_car": "6",
            "MID": "4810"
        },
        {
            "Latitude": "32.16442",
            "Longitude": "119.51143",
            "UID": "2989",
            "name": "精英公寓一期",
            "address": "江苏省镇江市京口区丁卯开发区四平山路",
            "n_car": "4",
            "MID": "4379"
        },
        {
            "Latitude": "32.22171",
            "Longitude": "119.475847",
            "UID": "2990",
            "name": "红豆购物广场",
            "address": "江苏省镇江市京口区东吴路288号88幢",
            "n_car": "6",
            "MID": "5819"
        },
        {
            "Latitude": "32.16348",
            "Longitude": "119.6724",
            "UID": "2991",
            "name": "蝴蝶商业广场",
            "address": "江苏省镇江市新区扬子江路168号",
            "n_car": "5",
            "MID": "5336"
        },
        {
            "Latitude": "32.14239",
            "Longitude": "119.5566",
            "UID": "2992",
            "name": "金洋水汇（水上乐园）",
            "address": "江苏省镇江市京口工业园区金阳大道1号",
            "n_car": "5",
            "MID": "5444"
        },
        {
            "Latitude": "32.161944",
            "Longitude": "119.513888",
            "UID": "2993",
            "name": "镇江大学科技园",
            "address": "江苏省镇江市丁卯楚桥路90号",
            "n_car": "8",
            "MID": "4288"
        },
        {
            "Latitude": "32.17818",
            "Longitude": "119.50912",
            "UID": "2994",
            "name": "镇江市留学生创业园",
            "address": "江苏省镇江市京口区丁卯开发区经十二路668号",
            "n_car": "8",
            "MID": "4343"
        },
        {
            "Latitude": "32.17141",
            "Longitude": "119.65969",
            "UID": "2995",
            "name": "镇江开发区人民法院",
            "address": "江苏省镇江市京口区银河路100号",
            "n_car": "5",
            "MID": "4808"
        },
        {
            "Latitude": "32.205856",
            "Longitude": "119.446792",
            "UID": "2996",
            "name": "镇江苏宁广场",
            "address": "江苏省镇江市京口区中山东路301号",
            "n_car": "8",
            "MID": "5752"
        },
        {
            "Latitude": "32.172638",
            "Longitude": "119.409896",
            "UID": "2997",
            "name": "万科润园",
            "address": "江苏省镇江市润州区檀山路10号",
            "n_car": "5",
            "MID": "5947"
        },
        {
            "Latitude": "32.206564",
            "Longitude": "119.438566",
            "UID": "2998",
            "name": "中央大街地下停车场",
            "address": "江苏省镇江市润州区中山东路398号",
            "n_car": "9",
            "MID": "5574"
        },
        {
            "Latitude": "32.17931",
            "Longitude": "119.37266",
            "UID": "2999",
            "name": "睿泰数字产业园地上",
            "address": "江苏省镇江市润州区南徐大道298号",
            "n_car": "6",
            "MID": "5353"
        },
        {
            "Latitude": "32.179108",
            "Longitude": "119.37402",
            "UID": "3000",
            "name": "睿泰数字产业园地下",
            "address": "江苏省镇江市润州区南徐大道298号地下",
            "n_car": "4",
            "MID": "5354"
        },
        {
            "Latitude": "32.19414",
            "Longitude": "119.46229",
            "UID": "3001",
            "name": "第六空间家居广场",
            "address": "江苏省镇江市润州区天桥路1号",
            "n_car": "5",
            "MID": "4348"
        },
        {
            "Latitude": "32.19804",
            "Longitude": "119.38409",
            "UID": "3002",
            "name": "蒋乔肾病医院",
            "address": "江苏省镇江市润州区富润路1号",
            "n_car": "3",
            "MID": "5820"
        },
        {
            "Latitude": "32.198096",
            "Longitude": "119.426669",
            "UID": "3003",
            "name": "镇江火车站（南广场）",
            "address": "江苏省镇江市润州区黄山西路18号",
            "n_car": "20",
            "MID": "5993"
        },
        {
            "Latitude": "32.191493",
            "Longitude": "119.443374",
            "UID": "3004",
            "name": "黎明社区卫生服务中心",
            "address": "江苏省镇江市润州区黄鹤山路77号",
            "n_car": "3",
            "MID": "5879"
        },
        {
            "Latitude": "32.12436",
            "Longitude": "119.43686",
            "UID": "3005",
            "name": "丹徒区人民医院",
            "address": "江苏省镇江市丹徒区瑞山路82号",
            "n_car": "8",
            "MID": "4991"
        },
        {
            "Latitude": "32.13087",
            "Longitude": "119.42599",
            "UID": "3006",
            "name": "丹徒区城市管理局",
            "address": "江苏省镇江市丹徒新城爱民路146号",
            "n_car": "6",
            "MID": "4347"
        },
        {
            "Latitude": "32.13215",
            "Longitude": "119.51035",
            "UID": "3007",
            "name": "丹徒氢能产业园",
            "address": "江苏省镇江市丹徒区智慧大道与308省道交汇处以南600米",
            "n_car": "2",
            "MID": "4380"
        },
        {
            "Latitude": "32.13516",
            "Longitude": "119.43206",
            "UID": "3008",
            "name": "圣地雅格",
            "address": "江苏省镇江市丹徒区谷阳大道192号附近",
            "n_car": "4",
            "MID": "4730"
        },
        {
            "Latitude": "32.15382",
            "Longitude": "119.64748",
            "UID": "3009",
            "name": "新能源产业园",
            "address": "江苏省镇江市新区港南路300号中心型创业园",
            "n_car": "5",
            "MID": "4735"
        },
        {
            "Latitude": "32.151666",
            "Longitude": "119.669722",
            "UID": "3010",
            "name": "镇江新区行政服务中心",
            "address": "江苏省镇江市赵声路宜侯路路口",
            "n_car": "6",
            "MID": "4230"
        },
        {
            "Latitude": "32.13805",
            "Longitude": "119.031667",
            "UID": "3011",
            "name": "仙林泰达青筑小区",
            "address": "江苏省镇江市句容市宝华大道66号19栋西侧停车场",
            "n_car": "3",
            "MID": "3366"
        }
    ]
}