{
    "network_node_evcard": [
        {
            "Longitude": "104.06832",
            "MID": "4101",
            "address": "四川省成都市锦江区人民东路6号",
            "name": "SAC四川航空广场",
            "Latitude": "30.66171",
            "n_car": "6",
            "UID": "3616"
        },
        {
            "Longitude": "104.16475",
            "MID": "3052",
            "address": "四川省成都市锦江区三圣乡万福村成万路339号（近成龙大道）",
            "name": "万福花卉",
            "Latitude": "30.57407",
            "n_car": "4",
            "UID": "3617"
        },
        {
            "Longitude": "104.15127",
            "MID": "4623",
            "address": "四川省成都市锦江区驸马村联合4组307号东篱花木产业园1号门左边",
            "name": "三圣东篱花木",
            "Latitude": "30.57899",
            "n_car": "4",
            "UID": "3618"
        },
        {
            "Longitude": "104.13946",
            "MID": "4907",
            "address": "四川省成都市锦江区喜树街1003号",
            "name": "东景家园",
            "Latitude": "30.59065",
            "n_car": "4",
            "UID": "3619"
        },
        {
            "Longitude": "104.16029",
            "MID": "2798",
            "address": "四川省成都市锦江区花圃路308号（红砂联合一组308号）",
            "name": "中东明园",
            "Latitude": "30.58729",
            "n_car": "4",
            "UID": "3620"
        },
        {
            "Longitude": "104.11563",
            "MID": "4570",
            "address": "四川省成都市锦江区静逸路76号",
            "name": "华兴新居",
            "Latitude": "30.60486",
            "n_car": "4",
            "UID": "3621"
        },
        {
            "Longitude": "104.063243",
            "MID": "5359",
            "address": "四川省成都市锦江区人民南路一段122-124号中铁名人大厦",
            "name": "城市名人酒店",
            "Latitude": "30.656142",
            "n_car": "4",
            "UID": "3622"
        },
        {
            "Longitude": "104.05894",
            "MID": "2694",
            "address": "四川省成都市锦江区滨江西路12号",
            "name": "工行滨江支行",
            "Latitude": "30.65008",
            "n_car": "3",
            "UID": "3623"
        },
        {
            "Longitude": "104.07167",
            "MID": "3953",
            "address": "四川省成都市锦江区东大街上东大街段246号",
            "name": "新良大酒店",
            "Latitude": "30.65615",
            "n_car": "4",
            "UID": "3624"
        },
        {
            "Longitude": "104.07194",
            "MID": "3714",
            "address": "四川省成都市锦江区解放路二段269号",
            "name": "春禧商务酒店",
            "Latitude": "30.65673",
            "n_car": "6",
            "UID": "3625"
        },
        {
            "Longitude": "104.08404",
            "MID": "3395",
            "address": "四川省成都市锦江区大慈寺路3号",
            "name": "朗御",
            "Latitude": "30.65578",
            "n_car": "3",
            "UID": "3626"
        },
        {
            "Longitude": "104.15264",
            "MID": "3715",
            "address": "四川省成都市锦江区联工三组309号（近柳荫路）",
            "name": "汇丰花园",
            "Latitude": "30.58701",
            "n_car": "4",
            "UID": "3627"
        },
        {
            "Longitude": "104.12418",
            "MID": "4571",
            "address": "四川省成都市锦江区佳宏路29号",
            "name": "沙河堡医院",
            "Latitude": "30.61992",
            "n_car": "4",
            "UID": "3628"
        },
        {
            "Longitude": "104.07774",
            "MID": "4211",
            "address": "四川省成都市锦江区华兴正街5号",
            "name": "王府井百货总府店",
            "Latitude": "30.66162",
            "n_car": "13",
            "UID": "3629"
        },
        {
            "Longitude": "104.13121",
            "MID": "4028",
            "address": "四川省成都市锦江区驸江路735号",
            "name": "百花园乡村酒店",
            "Latitude": "30.57341",
            "n_car": "4",
            "UID": "3630"
        },
        {
            "Longitude": "104.15652",
            "MID": "3939",
            "address": "四川省成都市锦江区三圣乡红砂联合二组307号",
            "name": "繁华生态园",
            "Latitude": "30.58903",
            "n_car": "4",
            "UID": "3631"
        },
        {
            "Longitude": "104.10128",
            "MID": "3449",
            "address": "四川省成都市锦江区经天路17号",
            "name": "翡翠琉璃",
            "Latitude": "30.60342",
            "n_car": "4",
            "UID": "3632"
        },
        {
            "Longitude": "104.15511",
            "MID": "2622",
            "address": "四川省成都市锦江区三圣乡簧柏路38号（近荷塘路）",
            "name": "荷塘月色9号",
            "Latitude": "30.57011",
            "n_car": "4",
            "UID": "3633"
        },
        {
            "Longitude": "104.15471",
            "MID": "3949",
            "address": "四川省成都市锦江区三圣乡成龙大道2408号",
            "name": "蜀仙园",
            "Latitude": "30.58336",
            "n_car": "4",
            "UID": "3634"
        },
        {
            "Longitude": "104.073633",
            "MID": "5652",
            "address": "四川省成都市锦江区王家坝街28号",
            "name": "遂宁宾馆",
            "Latitude": "30.650992",
            "n_car": "4",
            "UID": "3635"
        },
        {
            "Longitude": "104.12744",
            "MID": "3946",
            "address": "四川省成都市锦江区江家堰村9组9号",
            "name": "鹭溪小院",
            "Latitude": "30.57408",
            "n_car": "4",
            "UID": "3636"
        },
        {
            "Longitude": "103.98342",
            "MID": "4102",
            "address": "四川省成都市青羊区清百路21号",
            "name": "COCO金沙",
            "Latitude": "30.68651",
            "n_car": "4",
            "UID": "3637"
        },
        {
            "Longitude": "103.93545",
            "MID": "1458",
            "address": "四川省成都市青羊区七里6组309号",
            "name": "七里沟社区",
            "Latitude": "30.6719",
            "n_car": "4",
            "UID": "3638"
        },
        {
            "Longitude": "103.96563",
            "MID": "1404",
            "address": "四川省成都市青羊区万九路",
            "name": "万西苑",
            "Latitude": "30.66658",
            "n_car": "3",
            "UID": "3639"
        },
        {
            "Longitude": "103.98832",
            "MID": "1372",
            "address": "四川省成都市青羊区玉宇路977号",
            "name": "东坡街道办事处",
            "Latitude": "30.66828",
            "n_car": "3",
            "UID": "3640"
        },
        {
            "Longitude": "103.97782",
            "MID": "1398",
            "address": "四川省成都市青羊区培中路2号（近光华大道一段）",
            "name": "中坝小区",
            "Latitude": "30.67181",
            "n_car": "4",
            "UID": "3641"
        },
        {
            "Longitude": "103.98192",
            "MID": "1396",
            "address": "四川省成都市青羊区中鹏路1号（近苏坡中路）",
            "name": "中鹏社区",
            "Latitude": "30.67351",
            "n_car": "4",
            "UID": "3642"
        },
        {
            "Longitude": "103.92282",
            "MID": "1702",
            "address": "四川省成都市青羊区文乐二路37号（近光耀二路）",
            "name": "乐平社区",
            "Latitude": "30.68988",
            "n_car": "4",
            "UID": "3643"
        },
        {
            "Longitude": "104.01701",
            "MID": "2338",
            "address": "四川省成都市青羊区二环路西二段19号",
            "name": "仁和春天（光华店）",
            "Latitude": "30.66519",
            "n_car": "4",
            "UID": "3644"
        },
        {
            "Longitude": "104.00002",
            "MID": "1281",
            "address": "四川省成都市青羊区东坡路64号（近优品街）",
            "name": "优品天地",
            "Latitude": "30.66411",
            "n_car": "4",
            "UID": "3645"
        },
        {
            "Longitude": "104.00702",
            "MID": "1354",
            "address": "四川省成都市青羊区青羊大道188号",
            "name": "光华街道办事处",
            "Latitude": "30.672",
            "n_car": "2",
            "UID": "3646"
        },
        {
            "Longitude": "104.00646",
            "MID": "3677",
            "address": "四川省成都市青羊区大道26号",
            "name": "光华馨地",
            "Latitude": "30.66957",
            "n_car": "5",
            "UID": "3647"
        },
        {
            "Longitude": "104.07886",
            "MID": "1412",
            "address": "四川省成都市青羊区兴禅寺街16号（近太升北路）",
            "name": "兴禅寺街",
            "Latitude": "30.67065",
            "n_car": "4",
            "UID": "3648"
        },
        {
            "Longitude": "104.04891",
            "MID": "3288",
            "address": "四川省成都市青羊区包家巷99号",
            "name": "包家巷",
            "Latitude": "30.66068",
            "n_car": "3",
            "UID": "3649"
        },
        {
            "Longitude": "103.99642",
            "MID": "1378",
            "address": "四川省成都市青羊区金阳路376号附2号",
            "name": "印象金沙",
            "Latitude": "30.68542",
            "n_car": "4",
            "UID": "3650"
        },
        {
            "Longitude": "104.07558",
            "MID": "3950",
            "address": "四川省成都市青羊区卫民巷18号",
            "name": "双眼井社区",
            "Latitude": "30.67467",
            "n_car": "2",
            "UID": "3651"
        },
        {
            "Longitude": "104.00391",
            "MID": "1386",
            "address": "四川省成都市青羊区同怡横街273号（近蜀辉路）",
            "name": "同怡社区",
            "Latitude": "30.69464",
            "n_car": "4",
            "UID": "3652"
        },
        {
            "Longitude": "103.97542",
            "MID": "1402",
            "address": "四川省成都市青羊区培风横街288号（近培风东街）",
            "name": "培风社区",
            "Latitude": "30.66869",
            "n_car": "3",
            "UID": "3653"
        },
        {
            "Longitude": "103.93458",
            "MID": "1470",
            "address": "四川省成都市青羊区土龙路长江路",
            "name": "大石桥社区",
            "Latitude": "30.70884",
            "n_car": "4",
            "UID": "3654"
        },
        {
            "Longitude": "104.07651",
            "MID": "4009",
            "address": "四川省成都市青羊区太升北路2号",
            "name": "天府阳光酒店",
            "Latitude": "30.67041",
            "n_car": "4",
            "UID": "3655"
        },
        {
            "Longitude": "104.07291",
            "MID": "2408",
            "address": "四川省成都市青羊区太升南路1-1号（太升南路提督路口停车场内）",
            "name": "太升南路一号停车场",
            "Latitude": "30.66245",
            "n_car": "4",
            "UID": "3656"
        },
        {
            "Longitude": "104.07264",
            "MID": "1414",
            "address": "四川省成都市青羊区忠烈祠西街47号（近太升南路）",
            "name": "太升路派出所",
            "Latitude": "30.66776",
            "n_car": "4",
            "UID": "3657"
        },
        {
            "Longitude": "103.92493",
            "MID": "1700",
            "address": "四川省成都市青羊区文康路1号（近土龙路）",
            "name": "康庄社区",
            "Latitude": "30.70117",
            "n_car": "4",
            "UID": "3658"
        },
        {
            "Longitude": "103.90972",
            "MID": "1462",
            "address": "四川省成都市青羊区旭明幼儿园西350米（近光华大道北）",
            "name": "康河社区",
            "Latitude": "30.68178",
            "n_car": "4",
            "UID": "3659"
        },
        {
            "Longitude": "104.00268",
            "MID": "1388",
            "address": "四川省成都市青羊区蜀辉路386号（近黄苑街）",
            "name": "廉政广场",
            "Latitude": "30.69315",
            "n_car": "4",
            "UID": "3660"
        },
        {
            "Longitude": "104.06597",
            "MID": "3396",
            "address": "四川省成都市青羊区文武路152号",
            "name": "弗斯达酒店（文殊院店）",
            "Latitude": "30.67325",
            "n_car": "3",
            "UID": "3661"
        },
        {
            "Longitude": "103.94011",
            "MID": "1466",
            "address": "四川省成都市青羊区文家路199号附41号",
            "name": "张家碾社区",
            "Latitude": "30.70258",
            "n_car": "2",
            "UID": "3662"
        },
        {
            "Longitude": "103.96184",
            "MID": "1924",
            "address": "四川省成都市青羊区成飞大道531号（近文光路）",
            "name": "快活社区",
            "Latitude": "30.69016",
            "n_car": "4",
            "UID": "3663"
        },
        {
            "Longitude": "103.94125",
            "MID": "1468",
            "address": "四川省成都市青羊区文家大道200号（近张家碾公路）",
            "name": "文和居",
            "Latitude": "30.70147",
            "n_car": "2",
            "UID": "3664"
        },
        {
            "Longitude": "103.93686",
            "MID": "1454",
            "address": "四川省成都市青羊区文家路9号（近日月大道二段）",
            "name": "文家街道办事处",
            "Latitude": "30.69218",
            "n_car": "8",
            "UID": "3665"
        },
        {
            "Longitude": "104.05794",
            "MID": "1932",
            "address": "四川省成都市青羊区文庙后街51号（近文翁路）",
            "name": "文庙后街",
            "Latitude": "30.65496",
            "n_car": "4",
            "UID": "3666"
        },
        {
            "Longitude": "104.06795",
            "MID": "2412",
            "address": "四川省成都市青羊区人民中路三段37号附1号",
            "name": "文殊院",
            "Latitude": "30.67786",
            "n_car": "4",
            "UID": "3667"
        },
        {
            "Longitude": "104.05618",
            "MID": "2410",
            "address": "四川省成都市青羊区横陕西街1号",
            "name": "文翁社区",
            "Latitude": "30.65652",
            "n_car": "4",
            "UID": "3668"
        },
        {
            "Longitude": "104.06219",
            "MID": "4625",
            "address": "四川省成都市青羊区新华大道江汉路29号",
            "name": "新华宾馆",
            "Latitude": "30.67734",
            "n_car": "4",
            "UID": "3669"
        },
        {
            "Longitude": "104.00621",
            "MID": "2336",
            "address": "四川省成都市青羊区清江中路56号",
            "name": "昌河蓝天",
            "Latitude": "30.67509",
            "n_car": "3",
            "UID": "3670"
        },
        {
            "Longitude": "103.99414",
            "MID": "3458",
            "address": "四川省成都市青羊区金鹏路291号",
            "name": "星工场足球俱乐部",
            "Latitude": "30.68256",
            "n_car": "4",
            "UID": "3671"
        },
        {
            "Longitude": "103.98926",
            "MID": "3673",
            "address": "四川省成都市青羊区东坡北二路687号",
            "name": "朗基龙堂",
            "Latitude": "30.66922",
            "n_car": "4",
            "UID": "3672"
        },
        {
            "Longitude": "103.96701",
            "MID": "3728",
            "address": "四川省成都市青羊区培华路423号（近光华东三路）",
            "name": "橡树林酒店",
            "Latitude": "30.67431",
            "n_car": "4",
            "UID": "3673"
        },
        {
            "Longitude": "103.99654",
            "MID": "1366",
            "address": "四川省成都市青羊区琼楼路39号",
            "name": "水岸格林",
            "Latitude": "30.66592",
            "n_car": "4",
            "UID": "3674"
        },
        {
            "Longitude": "103.99539",
            "MID": "1364",
            "address": "四川省成都市青羊区琼楼路与东坡北一路路口",
            "name": "浪琴湾",
            "Latitude": "30.66575",
            "n_car": "4",
            "UID": "3675"
        },
        {
            "Longitude": "103.99589",
            "MID": "1358",
            "address": "四川省成都市青羊区东坡北一路666号（近玉宇路）",
            "name": "清水河社区",
            "Latitude": "30.66824",
            "n_car": "4",
            "UID": "3676"
        },
        {
            "Longitude": "103.97348",
            "MID": "4482",
            "address": "四川省成都市青羊区清河一支路11号",
            "name": "清江苑",
            "Latitude": "30.69007",
            "n_car": "4",
            "UID": "3677"
        },
        {
            "Longitude": "103.984",
            "MID": "1400",
            "address": "四川省成都市青羊区蜀鑫路208号（近蜀清路）",
            "name": "清波社区",
            "Latitude": "30.67996",
            "n_car": "4",
            "UID": "3678"
        },
        {
            "Longitude": "103.98223",
            "MID": "1394",
            "address": "四川省成都市青羊区清百西二路49号（近清百路）",
            "name": "清源社区",
            "Latitude": "30.69323",
            "n_car": "4",
            "UID": "3679"
        },
        {
            "Longitude": "103.99336",
            "MID": "1692",
            "address": "四川省成都市青羊区瑞星路99号附27号（近瑞联街）",
            "name": "瑞景光华",
            "Latitude": "30.66996",
            "n_car": "4",
            "UID": "3680"
        },
        {
            "Longitude": "103.99572",
            "MID": "1360",
            "address": "四川省成都市青羊区双新南路85号（近贝森路）",
            "name": "皇冠花园",
            "Latitude": "30.67225",
            "n_car": "4",
            "UID": "3681"
        },
        {
            "Longitude": "104.00623",
            "MID": "3286",
            "address": "四川省成都市青羊区青羊大道10号附19号",
            "name": "皇钻花园KTV",
            "Latitude": "30.66133",
            "n_car": "10",
            "UID": "3682"
        },
        {
            "Longitude": "104.06445",
            "MID": "1410",
            "address": "四川省成都市青羊区人民东路66号（近人民中路一段）",
            "name": "省经信委",
            "Latitude": "30.6612",
            "n_car": "5",
            "UID": "3683"
        },
        {
            "Longitude": "104.00624",
            "MID": "1376",
            "address": "四川省成都市青羊区蜀辉路477号（碧海云天地面停车场内）",
            "name": "碧海云天假日酒店",
            "Latitude": "30.69958",
            "n_car": "4",
            "UID": "3684"
        },
        {
            "Longitude": "103.98851",
            "MID": "1362",
            "address": "四川省成都市青羊区贝森路357号（近东顺路口）",
            "name": "美丽朋城",
            "Latitude": "30.67299",
            "n_car": "4",
            "UID": "3685"
        },
        {
            "Longitude": "103.97335",
            "MID": "1928",
            "address": "四川省成都市青羊区联工3组308号",
            "name": "联工社区",
            "Latitude": "30.6952",
            "n_car": "4",
            "UID": "3686"
        },
        {
            "Longitude": "103.95972",
            "MID": "5775",
            "address": "四川省成都市青羊区成飞大道199号",
            "name": "艾克美酒店",
            "Latitude": "30.68606",
            "n_car": "4",
            "UID": "3687"
        },
        {
            "Longitude": "103.98296",
            "MID": "1392",
            "address": "四川省成都市青羊区苏坡中路8号（近光华大道）",
            "name": "苏坡街道办事处",
            "Latitude": "30.67222",
            "n_car": "3",
            "UID": "3688"
        },
        {
            "Longitude": "103.92196",
            "MID": "1706",
            "address": "四川省成都市青羊区光耀三路",
            "name": "董家坝社区",
            "Latitude": "30.68881",
            "n_car": "4",
            "UID": "3689"
        },
        {
            "Longitude": "103.92513",
            "MID": "1464",
            "address": "四川省成都市青羊区乐平五路43号（近光耀三路）",
            "name": "蓉西阳光",
            "Latitude": "30.67715",
            "n_car": "6",
            "UID": "3690"
        },
        {
            "Longitude": "103.94288",
            "MID": "1926",
            "address": "四川省成都市青羊区蔡桥4组398号",
            "name": "蔡桥社区",
            "Latitude": "30.66742",
            "n_car": "2",
            "UID": "3691"
        },
        {
            "Longitude": "103.99779",
            "MID": "1287",
            "address": "四川省成都市青羊区苏坡东路12号（近蜀金路）",
            "name": "西单商场",
            "Latitude": "30.67645",
            "n_car": "4",
            "UID": "3692"
        },
        {
            "Longitude": "104.00127",
            "MID": "1382",
            "address": "四川省成都市青羊区蜀源5号附4号",
            "name": "金凤社区",
            "Latitude": "30.67896",
            "n_car": "4",
            "UID": "3693"
        },
        {
            "Longitude": "104.00915",
            "MID": "1698",
            "address": "四川省成都市青羊区青羊大道215号（近金阳路）",
            "name": "金沙园",
            "Latitude": "30.67905",
            "n_car": "4",
            "UID": "3694"
        },
        {
            "Longitude": "104.00577",
            "MID": "1350",
            "address": "四川省成都市青羊区金沙遗址路7号（近金凤路）",
            "name": "金沙街道办事处",
            "Latitude": "30.68293",
            "n_car": "4",
            "UID": "3695"
        },
        {
            "Longitude": "104.00125",
            "MID": "1384",
            "address": "四川省成都市青羊区金阳路123号（近蜀金路）",
            "name": "金沙西园",
            "Latitude": "30.68291",
            "n_car": "4",
            "UID": "3696"
        },
        {
            "Longitude": "104.01092",
            "MID": "1892",
            "address": "四川省成都市青羊区金博路3号（近黄忠路）",
            "name": "金沙遗址博物馆",
            "Latitude": "30.68662",
            "n_car": "3",
            "UID": "3697"
        },
        {
            "Longitude": "104.00315",
            "MID": "1380",
            "address": "四川省成都市青羊区金栖路2号（近金凤路5号）",
            "name": "金沙顺苑",
            "Latitude": "30.67772",
            "n_car": "4",
            "UID": "3698"
        },
        {
            "Longitude": "104.05888",
            "MID": "1934",
            "address": "四川省成都市青羊区江汉路264号（近灯笼街）",
            "name": "锦隆时代",
            "Latitude": "30.67788",
            "n_car": "4",
            "UID": "3699"
        },
        {
            "Longitude": "104.00535",
            "MID": "1696",
            "address": "四川省成都市青羊区金凤路13号（近金阳路）",
            "name": "门庭",
            "Latitude": "30.68117",
            "n_car": "4",
            "UID": "3700"
        },
        {
            "Longitude": "104.01408",
            "MID": "1352",
            "address": "四川省成都市青羊区家园南街12号",
            "name": "青年创业孵化基地",
            "Latitude": "30.66335",
            "n_car": "3",
            "UID": "3701"
        },
        {
            "Longitude": "104.06026",
            "MID": "1356",
            "address": "四川省成都市青羊区王家唐街84号",
            "name": "青羊区政府",
            "Latitude": "30.67658",
            "n_car": "10",
            "UID": "3702"
        },
        {
            "Longitude": "103.99501",
            "MID": "1368",
            "address": "四川省成都市青羊区瑞联路139号（近东坡北一路）",
            "name": "青羊区文体局",
            "Latitude": "30.6692",
            "n_car": "5",
            "UID": "3703"
        },
        {
            "Longitude": "104.0584",
            "MID": "1408",
            "address": "四川省成都市青羊区平安巷10号（近东城根上街）",
            "name": "青羊区民政局",
            "Latitude": "30.66491",
            "n_car": "4",
            "UID": "3704"
        },
        {
            "Longitude": "103.99096",
            "MID": "1694",
            "address": "四川省成都市青羊区玉宇路854号（近春晓路）",
            "name": "香木林",
            "Latitude": "30.6683",
            "n_car": "4",
            "UID": "3705"
        },
        {
            "Longitude": "103.92062",
            "MID": "1460",
            "address": "四川省成都市青羊区福庆路139号",
            "name": "马厂社区",
            "Latitude": "30.67614",
            "n_car": "4",
            "UID": "3706"
        },
        {
            "Longitude": "104.08248",
            "MID": "2082",
            "address": "四川省成都市青羊区马镇街41号（近小关庙街）",
            "name": "马镇街",
            "Latitude": "30.67096",
            "n_car": "4",
            "UID": "3707"
        },
        {
            "Longitude": "103.9452",
            "MID": "2200",
            "address": "四川省成都市青羊区高砍四组304号",
            "name": "高砍社区",
            "Latitude": "30.71898",
            "n_car": "4",
            "UID": "3708"
        },
        {
            "Longitude": "103.96946",
            "MID": "1406",
            "address": "四川省成都市青羊区经四路138号",
            "name": "黄田坝街道办事处",
            "Latitude": "30.69975",
            "n_car": "4",
            "UID": "3709"
        },
        {
            "Longitude": "104.00029",
            "MID": "1390",
            "address": "四川省成都市青羊区黄苑路916号（近三环路）",
            "name": "龙栖苑",
            "Latitude": "30.69462",
            "n_car": "4",
            "UID": "3710"
        },
        {
            "Longitude": "104.08723",
            "MID": "3022",
            "address": "四川省成都市金牛区天回镇万圣村八组818号（近金新路）",
            "name": "万圣社区",
            "Latitude": "30.78254",
            "n_car": "4",
            "UID": "3711"
        },
        {
            "Longitude": "104.07672",
            "MID": "3948",
            "address": "四川省成都市金牛区星辉中路24号",
            "name": "上层名人酒店",
            "Latitude": "30.67818",
            "n_car": "6",
            "UID": "3712"
        },
        {
            "Longitude": "103.994573",
            "MID": "5174",
            "address": "四川省成都市金牛区金科南路49号附近",
            "name": "前锋西线国际",
            "Latitude": "30.718295",
            "n_car": "4",
            "UID": "3713"
        },
        {
            "Longitude": "104.02403",
            "MID": "5385",
            "address": "四川省成都市金牛区茶店子正街132号",
            "name": "安泰安蓉大酒店",
            "Latitude": "30.70028",
            "n_car": "4",
            "UID": "3714"
        },
        {
            "Longitude": "104.08062",
            "MID": "3374",
            "address": "四川省成都市金牛区田家巷15号",
            "name": "尚锦城",
            "Latitude": "30.69239",
            "n_car": "4",
            "UID": "3715"
        },
        {
            "Longitude": "103.99434",
            "MID": "5335",
            "address": "四川省成都市金牛区蜀西路77号",
            "name": "成都三公尚品酒楼",
            "Latitude": "30.71211",
            "n_car": "4",
            "UID": "3716"
        },
        {
            "Longitude": "104.07807",
            "MID": "5943",
            "address": "四川省成都市金牛区天回镇成都国际商贸城19号门",
            "name": "成都国际商贸城-19",
            "Latitude": "30.79379",
            "n_car": "4",
            "UID": "3717"
        },
        {
            "Longitude": "104.08219",
            "MID": "5941",
            "address": "四川省成都市金牛区天回镇成都国际商贸城3号门",
            "name": "成都国际商贸城-3",
            "Latitude": "30.79213",
            "n_car": "4",
            "UID": "3718"
        },
        {
            "Longitude": "104.08138",
            "MID": "5942",
            "address": "四川省成都市金牛区天回镇成都国际商贸城8号门",
            "name": "成都国际商贸城-8",
            "Latitude": "30.79478",
            "n_car": "4",
            "UID": "3719"
        },
        {
            "Longitude": "104.11735",
            "MID": "5944",
            "address": "四川省成都市金牛区天回镇银杏园路6号",
            "name": "成都育才骨科医院",
            "Latitude": "30.76276",
            "n_car": "4",
            "UID": "3720"
        },
        {
            "Longitude": "104.049931",
            "MID": "5720",
            "address": "四川省成都市金牛区群星路11号",
            "name": "数码村",
            "Latitude": "30.705601",
            "n_car": "4",
            "UID": "3721"
        },
        {
            "Longitude": "103.97367",
            "MID": "5340",
            "address": "四川省成都市金牛区蜀西路399号中海国际社区体育公园B区",
            "name": "棕榈高尔夫练习场",
            "Latitude": "30.71936",
            "n_car": "4",
            "UID": "3722"
        },
        {
            "Longitude": "103.97924",
            "MID": "5343",
            "address": "四川省成都市金牛区两河二街与两河西三路交叉口",
            "name": "永生停车场",
            "Latitude": "30.71801",
            "n_car": "4",
            "UID": "3723"
        },
        {
            "Longitude": "104.08101",
            "MID": "3400",
            "address": "四川省成都市金牛区解颐路2号附1号",
            "name": "泰基北锦",
            "Latitude": "30.68865",
            "n_car": "4",
            "UID": "3724"
        },
        {
            "Longitude": "104.01189",
            "MID": "3453",
            "address": "四川省成都市金牛区育德路89号",
            "name": "红色佳苑",
            "Latitude": "30.70103",
            "n_car": "4",
            "UID": "3725"
        },
        {
            "Longitude": "104.10021",
            "MID": "3952",
            "address": "四川省成都市金牛区兴川路886号",
            "name": "西联钢铁大厦",
            "Latitude": "30.75667",
            "n_car": "4",
            "UID": "3726"
        },
        {
            "Longitude": "104.07981",
            "MID": "3712",
            "address": "四川省成都市金牛区解放路二段209号",
            "name": "解放路商务酒店",
            "Latitude": "30.68244",
            "n_car": "6",
            "UID": "3727"
        },
        {
            "Longitude": "103.97838",
            "MID": "3676",
            "address": "四川省成都市金牛区两河西三路129号（近土龙路）",
            "name": "远洋朗郡",
            "Latitude": "30.71886",
            "n_car": "4",
            "UID": "3728"
        },
        {
            "Longitude": "104.04756",
            "MID": "3943",
            "address": "四川省成都市金牛区金丰路6号",
            "name": "量力钢材城9栋",
            "Latitude": "30.73115",
            "n_car": "4",
            "UID": "3729"
        },
        {
            "Longitude": "104.04563",
            "MID": "3944",
            "address": "四川省成都市金牛区金丰路6号（A区）",
            "name": "量力钢材城A区",
            "Latitude": "30.72977",
            "n_car": "4",
            "UID": "3730"
        },
        {
            "Longitude": "104.10456",
            "MID": "3951",
            "address": "四川省成都市金牛区明月路63号（近海滨堰街）",
            "name": "铁公鸡物流港",
            "Latitude": "30.76185",
            "n_car": "4",
            "UID": "3731"
        },
        {
            "Longitude": "104.13049",
            "MID": "3192",
            "address": "四川省成都市金牛区严家祠路188号（近银杏园路）",
            "name": "银杏苑B区",
            "Latitude": "30.75496",
            "n_car": "4",
            "UID": "3732"
        },
        {
            "Longitude": "104.12564",
            "MID": "3194",
            "address": "四川省成都市金牛区翠微路6号",
            "name": "银杏苑D区",
            "Latitude": "30.75276",
            "n_car": "4",
            "UID": "3733"
        },
        {
            "Longitude": "104.04584",
            "MID": "2878",
            "address": "四川省成都市金牛区花牌坊北顺街2号1号",
            "name": "青桐城市酒店",
            "Latitude": "30.68503",
            "n_car": "4",
            "UID": "3734"
        },
        {
            "Longitude": "104.01881",
            "MID": "3935",
            "address": "四川省成都市武侯区武侯大道双楠段18号",
            "name": "D6酒店(武侯店）",
            "Latitude": "30.64276",
            "n_car": "4",
            "UID": "3735"
        },
        {
            "Longitude": "103.98461",
            "MID": "3457",
            "address": "四川省成都市武侯区万顺二路59号",
            "name": "万福苑",
            "Latitude": "30.65222",
            "n_car": "6",
            "UID": "3736"
        },
        {
            "Longitude": "104.05867",
            "MID": "3451",
            "address": "四川省成都市武侯区东巷别苑",
            "name": "东巷别苑",
            "Latitude": "30.64864",
            "n_car": "3",
            "UID": "3737"
        },
        {
            "Longitude": "104.00098",
            "MID": "2868",
            "address": "四川省成都市武侯区顺和街10号（近武侯大道）",
            "name": "中华名园",
            "Latitude": "30.63458",
            "n_car": "6",
            "UID": "3738"
        },
        {
            "Longitude": "104.05703",
            "MID": "3102",
            "address": "四川省成都市武侯区锦尚西二路（近益州大道）中海城南外",
            "name": "中海城南",
            "Latitude": "30.58102",
            "n_car": "2",
            "UID": "3739"
        },
        {
            "Longitude": "104.03223",
            "MID": "5832",
            "address": "四川省成都市武侯区丽都路1号",
            "name": "丽都公园",
            "Latitude": "30.63055",
            "n_car": "4",
            "UID": "3740"
        },
        {
            "Longitude": "104.0004",
            "MID": "5312",
            "address": "四川省成都市武侯区沙堰街162号",
            "name": "亿通新天地",
            "Latitude": "30.65661",
            "n_car": "4",
            "UID": "3741"
        },
        {
            "Longitude": "104.01009",
            "MID": "4198",
            "address": "四川省成都市武侯区簇桥街道成双大道北段49号",
            "name": "八益精品家具广场",
            "Latitude": "30.61706",
            "n_car": "4",
            "UID": "3742"
        },
        {
            "Longitude": "104.063527",
            "MID": "5986",
            "address": "四川省成都市武侯区人民南路4段42号",
            "name": "凯宾斯基饭店",
            "Latitude": "30.620434",
            "n_car": "5",
            "UID": "3743"
        },
        {
            "Longitude": "104.06737",
            "MID": "4620",
            "address": "四川省成都市武侯区航空路7号华尔兹广场地下负一层",
            "name": "华尔兹广场",
            "Latitude": "30.61913",
            "n_car": "4",
            "UID": "3744"
        },
        {
            "Longitude": "103.98108",
            "MID": "2870",
            "address": "四川省成都市武侯区武科东三路12号",
            "name": "合信药业",
            "Latitude": "30.63311",
            "n_car": "4",
            "UID": "3745"
        },
        {
            "Longitude": "104.05704",
            "MID": "4622",
            "address": "四川省成都市武侯区益州大道北段388号",
            "name": "城市春天",
            "Latitude": "30.60241",
            "n_car": "4",
            "UID": "3746"
        },
        {
            "Longitude": "104.05294",
            "MID": "4202",
            "address": "四川省成都市武侯区益州大道中段722号",
            "name": "复城国际",
            "Latitude": "30.55332",
            "n_car": "6",
            "UID": "3747"
        },
        {
            "Longitude": "104.03315",
            "MID": "4151",
            "address": "四川省成都市武侯区大源北中街2号",
            "name": "大源25号院",
            "Latitude": "30.56039",
            "n_car": "4",
            "UID": "3748"
        },
        {
            "Longitude": "104.0704",
            "MID": "5858",
            "address": "四川省成都市武侯区天华二路219号",
            "name": "天府软件园C区",
            "Latitude": "30.54406",
            "n_car": "6",
            "UID": "3749"
        },
        {
            "Longitude": "104.075497",
            "MID": "5382",
            "address": "四川省成都市武侯区迎江路198号",
            "name": "尚成十八步岛酒店",
            "Latitude": "30.545287",
            "n_car": "4",
            "UID": "3750"
        },
        {
            "Longitude": "104.0249",
            "MID": "5013",
            "address": "四川省成都市武侯区董家湾南街90号",
            "name": "尚成格外酒楼",
            "Latitude": "30.62576",
            "n_car": "4",
            "UID": "3751"
        },
        {
            "Longitude": "104.07498",
            "MID": "2800",
            "address": "四川省成都市武侯区科华南路3号附20号",
            "name": "工行科华南路支行",
            "Latitude": "30.61155",
            "n_car": "2",
            "UID": "3752"
        },
        {
            "Longitude": "104.04729",
            "MID": "4626",
            "address": "四川省成都市武侯区神仙树南路63号巴国布衣（神仙树店）",
            "name": "巴国布衣(神仙树店)",
            "Latitude": "30.60857",
            "n_car": "4",
            "UID": "3753"
        },
        {
            "Longitude": "104.065463",
            "MID": "3711",
            "address": "四川省成都市武侯区天府大道中段666号（近升华路）",
            "name": "希顿国际广场",
            "Latitude": "30.55149",
            "n_car": "9",
            "UID": "3754"
        },
        {
            "Longitude": "103.98238",
            "MID": "4675",
            "address": "四川省成都市武侯区成双大道中段鞋都路8号",
            "name": "成都国际皮革城",
            "Latitude": "30.60129",
            "n_car": "6",
            "UID": "3755"
        },
        {
            "Longitude": "104.02221",
            "MID": "5115",
            "address": "四川省成都市武侯区新胜路469号",
            "name": "新和领航自由自住公寓",
            "Latitude": "30.59011",
            "n_car": "4",
            "UID": "3756"
        },
        {
            "Longitude": "103.99403",
            "MID": "3672",
            "address": "四川省成都市武侯区果堰路16号",
            "name": "果堰小区",
            "Latitude": "30.63956",
            "n_car": "4",
            "UID": "3757"
        },
        {
            "Longitude": "104.05874",
            "MID": "4855",
            "address": "四川省成都市武侯区桐梓林南路7号（地下车库2层）",
            "name": "桐梓林欧城",
            "Latitude": "30.61381",
            "n_car": "4",
            "UID": "3758"
        },
        {
            "Longitude": "104.04965",
            "MID": "3190",
            "address": "四川省成都市武侯区玉林西路98号",
            "name": "梧桐世家",
            "Latitude": "30.63212",
            "n_car": "4",
            "UID": "3759"
        },
        {
            "Longitude": "104.0591",
            "MID": "5651",
            "address": "四川省成都市武侯区泰和一街88号",
            "name": "欧尚（高新店）",
            "Latitude": "30.60478",
            "n_car": "10",
            "UID": "3760"
        },
        {
            "Longitude": "103.97803",
            "MID": "3260",
            "address": "四川省成都市武侯区永康路17号",
            "name": "正成广场",
            "Latitude": "30.64727",
            "n_car": "8",
            "UID": "3761"
        },
        {
            "Longitude": "104.02181",
            "MID": "3940",
            "address": "四川省成都市武侯区红牌楼一街洪升汽配",
            "name": "洪升汽配城",
            "Latitude": "30.63607",
            "n_car": "4",
            "UID": "3762"
        },
        {
            "Longitude": "104.001586",
            "MID": "5719",
            "address": "四川省成都市武侯区晋阳路124号",
            "name": "浣花溪智选假日酒店",
            "Latitude": "30.654593",
            "n_car": "3",
            "UID": "3763"
        },
        {
            "Longitude": "103.98349",
            "MID": "2874",
            "address": "四川省成都市武侯区西三环路三段（近东坡路）",
            "name": "清水河公园",
            "Latitude": "30.66339",
            "n_car": "4",
            "UID": "3764"
        },
        {
            "Longitude": "103.98542",
            "MID": "2872",
            "address": "四川省成都市武侯区西三环路三段清水河公园停车场",
            "name": "清水河公园游乐场",
            "Latitude": "30.65698",
            "n_car": "4",
            "UID": "3765"
        },
        {
            "Longitude": "103.98937",
            "MID": "2876",
            "address": "四川省成都市武侯区万丰路196号（近晋阳路）",
            "name": "清水苑",
            "Latitude": "30.65634",
            "n_car": "4",
            "UID": "3766"
        },
        {
            "Longitude": "103.97541",
            "MID": "3180",
            "address": "四川省成都市武侯区武兴三路629号",
            "name": "潮音社区",
            "Latitude": "30.63939",
            "n_car": "5",
            "UID": "3767"
        },
        {
            "Longitude": "104.07434",
            "MID": "4909",
            "address": "四川省成都市武侯区新南路103号",
            "name": "祥宇宾馆",
            "Latitude": "30.63909",
            "n_car": "4",
            "UID": "3768"
        },
        {
            "Longitude": "104.05648",
            "MID": "4171",
            "address": "四川省成都市武侯区天府二街368号",
            "name": "绿地之窗",
            "Latitude": "30.55461",
            "n_car": "4",
            "UID": "3769"
        },
        {
            "Longitude": "104.06272",
            "MID": "3710",
            "address": "四川省成都市武侯区天府大道北段8号（近盛和一路）",
            "name": "苏宁广场",
            "Latitude": "30.60451",
            "n_car": "10",
            "UID": "3770"
        },
        {
            "Longitude": "104.067276",
            "MID": "3016",
            "address": "四川省成都市武侯区天泰路338号（近永安路）",
            "name": "豪生大酒店",
            "Latitude": "30.59267",
            "n_car": "4",
            "UID": "3771"
        },
        {
            "Longitude": "103.98722",
            "MID": "3184",
            "address": "四川省成都市武侯区果丰路88号（近西三环路二段）",
            "name": "金楠尚府",
            "Latitude": "30.64731",
            "n_car": "4",
            "UID": "3772"
        },
        {
            "Longitude": "103.99217",
            "MID": "3709",
            "address": "四川省成都市武侯区兆景路199号（近聚龙路）",
            "name": "金楠美食广场",
            "Latitude": "30.62584",
            "n_car": "4",
            "UID": "3773"
        },
        {
            "Longitude": "104.04605",
            "MID": "2624",
            "address": "四川省成都市武侯区永丰路45号",
            "name": "长盛帝都国际酒店",
            "Latitude": "30.62958",
            "n_car": "5",
            "UID": "3774"
        },
        {
            "Longitude": "103.996",
            "MID": "2692",
            "address": "四川省成都市武侯区晋吉北路282号",
            "name": "长盛续锦",
            "Latitude": "30.64956",
            "n_car": "3",
            "UID": "3775"
        },
        {
            "Longitude": "103.95116",
            "MID": "4812",
            "address": "四川省成都市武侯区永康大道19号西侧（永康森林公园内）",
            "name": "雅风庭院（永康店）",
            "Latitude": "30.6467",
            "n_car": "4",
            "UID": "3776"
        },
        {
            "Longitude": "104.06715",
            "MID": "5009",
            "address": "四川省成都市武侯区二环路南二段21号",
            "name": "首航欣程",
            "Latitude": "30.62462",
            "n_car": "4",
            "UID": "3777"
        },
        {
            "Longitude": "104.00864",
            "MID": "3454",
            "address": "四川省成都市武侯区龙华北巷1号",
            "name": "龙华停车场",
            "Latitude": "30.65309",
            "n_car": "4",
            "UID": "3778"
        },
        {
            "Longitude": "103.98779",
            "MID": "4204",
            "address": "四川省成都市武侯区簇桥望锦东街64号附1号",
            "name": "龙锦古堡红酒俱乐部",
            "Latitude": "30.60614",
            "n_car": "4",
            "UID": "3779"
        },
        {
            "Longitude": "104.06041",
            "MID": "4121",
            "address": "四川省成都市武侯区交子北二路17号",
            "name": "（内部限制）市机关第六办公区",
            "Latitude": "30.58997",
            "n_car": "4",
            "UID": "3780"
        },
        {
            "Longitude": "104.07656",
            "MID": "5386",
            "address": "四川省成都市成华区站北东街1号",
            "name": "七里香大酒店",
            "Latitude": "30.70328",
            "n_car": "4",
            "UID": "3781"
        },
        {
            "Longitude": "104.11445",
            "MID": "3020",
            "address": "四川省成都市成华区万年路57号（近二环高架）",
            "name": "万年茗居",
            "Latitude": "30.65721",
            "n_car": "4",
            "UID": "3782"
        },
        {
            "Longitude": "104.07481",
            "MID": "3713",
            "address": "四川省成都市成华区水武路14号（近东沙街）",
            "name": "东沙社区",
            "Latitude": "30.70899",
            "n_car": "4",
            "UID": "3783"
        },
        {
            "Longitude": "104.15233",
            "MID": "3182",
            "address": "四川省成都市成华区和安一路48号",
            "name": "东锦城",
            "Latitude": "30.65275",
            "n_car": "4",
            "UID": "3784"
        },
        {
            "Longitude": "104.160797",
            "MID": "5381",
            "address": "四川省成都市成华区东三环路二段2号",
            "name": "中国西部汽车城东区",
            "Latitude": "30.676715",
            "n_car": "4",
            "UID": "3785"
        },
        {
            "Longitude": "104.09311",
            "MID": "3054",
            "address": "四川省成都市成华区双荆路111号",
            "name": "中营购物广场",
            "Latitude": "30.71131",
            "n_car": "6",
            "UID": "3786"
        },
        {
            "Longitude": "104.11948",
            "MID": "4574",
            "address": "四川省成都市成华区跳蹬河北路177号",
            "name": "仕艾康足球运动中心",
            "Latitude": "30.66267",
            "n_car": "4",
            "UID": "3787"
        },
        {
            "Longitude": "104.16745",
            "MID": "3044",
            "address": "四川省成都市成华区北湖印象小区（近龙潭路）",
            "name": "北湖印象",
            "Latitude": "30.71628",
            "n_car": "4",
            "UID": "3788"
        },
        {
            "Longitude": "104.13631",
            "MID": "3050",
            "address": "四川省成都市成华区崔家店路578号（近成龙大道）",
            "name": "十里彩云间",
            "Latitude": "30.67338",
            "n_car": "4",
            "UID": "3789"
        },
        {
            "Longitude": "104.12963",
            "MID": "4282",
            "address": "四川省成都市成华区二仙桥北路28号",
            "name": "华西雅筑（北区）",
            "Latitude": "30.68679",
            "n_car": "4",
            "UID": "3790"
        },
        {
            "Longitude": "104.1648",
            "MID": "4739",
            "address": "四川省成都市成华区龙潭熊猫大道同乐社区农贸市场",
            "name": "同乐社区农贸市场",
            "Latitude": "30.72134",
            "n_car": "4",
            "UID": "3791"
        },
        {
            "Longitude": "104.18121",
            "MID": "3671",
            "address": "四川省成都市成华区航天路53号（近华实路）\t\t\t\t\t",
            "name": "启源兴业",
            "Latitude": "30.69427",
            "n_car": "4",
            "UID": "3792"
        },
        {
            "Longitude": "104.11057",
            "MID": "3938",
            "address": "四川省成都市成华区建设南路1号",
            "name": "呈祥东馆",
            "Latitude": "30.66939",
            "n_car": "4",
            "UID": "3793"
        },
        {
            "Longitude": "104.09727",
            "MID": "4567",
            "address": "四川省成都市成华区建设中路53号",
            "name": "国光一环大厦",
            "Latitude": "30.67267",
            "n_car": "4",
            "UID": "3794"
        },
        {
            "Longitude": "104.14203",
            "MID": "4614",
            "address": "四川省成都市成华区东三环路一段内侧",
            "name": "城市仁德山庄",
            "Latitude": "30.70718",
            "n_car": "4",
            "UID": "3795"
        },
        {
            "Longitude": "104.16279",
            "MID": "5001",
            "address": "四川省成都市成华区成致路6号",
            "name": "多元总部国际1号",
            "Latitude": "30.6846",
            "n_car": "4",
            "UID": "3796"
        },
        {
            "Longitude": "104.13809",
            "MID": "3046",
            "address": "四川省成都市成华区槐树店路40号（近崔家店路）",
            "name": "宏苑",
            "Latitude": "30.65491",
            "n_car": "4",
            "UID": "3797"
        },
        {
            "Longitude": "104.13671",
            "MID": "3024",
            "address": "四川省成都市成华区成华大道十里店路2号（近成华大道）",
            "name": "怡东国际酒店",
            "Latitude": "30.67617",
            "n_car": "4",
            "UID": "3798"
        },
        {
            "Longitude": "104.17926",
            "MID": "3687",
            "address": "四川省成都市成华区航天路88号（近华实路）",
            "name": "成都宴宾楼",
            "Latitude": "30.69164",
            "n_car": "4",
            "UID": "3799"
        },
        {
            "Longitude": "104.13621",
            "MID": "3018",
            "address": "四川省成都市成华区成华大道十里店路2号附6号（近二仙桥路）",
            "name": "成都理工大学",
            "Latitude": "30.67557",
            "n_car": "4",
            "UID": "3800"
        },
        {
            "Longitude": "104.1079",
            "MID": "1708",
            "address": "四川省成都市成华区致顺路168号（近致顺南二街）",
            "name": "新和平苑",
            "Latitude": "30.70145",
            "n_car": "4",
            "UID": "3801"
        },
        {
            "Longitude": "104.18351",
            "MID": "4779",
            "address": "四川省成都市成华区桂林东路1号（桂林萃岛南区）",
            "name": "桂林萃岛",
            "Latitude": "30.7132",
            "n_car": "4",
            "UID": "3802"
        },
        {
            "Longitude": "104.18108",
            "MID": "3956",
            "address": "四川省成都市成华区成宏路26号",
            "name": "汇润国际",
            "Latitude": "30.69637",
            "n_car": "4",
            "UID": "3803"
        },
        {
            "Longitude": "104.16871",
            "MID": "4119",
            "address": "四川省成都市成华区华冠路4号",
            "name": "秀林苑（西区）",
            "Latitude": "30.70032",
            "n_car": "4",
            "UID": "3804"
        },
        {
            "Longitude": "104.09147",
            "MID": "3675",
            "address": "四川省成都市成华区荆竹路348号（近荆竹坝路）",
            "name": "荆竹小区（6号院）",
            "Latitude": "30.71767",
            "n_car": "3",
            "UID": "3805"
        },
        {
            "Longitude": "104.09405",
            "MID": "3674",
            "address": "四川省成都市成华区荆竹路258号（近荆竹坝路）",
            "name": "荆竹小区（7号院）",
            "Latitude": "30.71807",
            "n_car": "4",
            "UID": "3806"
        },
        {
            "Longitude": "104.09383",
            "MID": "3372",
            "address": "四川省成都市成华区荆顺东街259号",
            "name": "荆竹苑",
            "Latitude": "30.71598",
            "n_car": "4",
            "UID": "3807"
        },
        {
            "Longitude": "104.11448",
            "MID": "3669",
            "address": "四川省成都市成华区建设南路20号附1号（近建功路）",
            "name": "蜀九香（SM店）",
            "Latitude": "30.67104",
            "n_car": "4",
            "UID": "3808"
        },
        {
            "Longitude": "104.09873",
            "MID": "4173",
            "address": "四川省成都市成华区荆翠西路2号2栋附105号",
            "name": "金科中心（四川）",
            "Latitude": "30.71965",
            "n_car": "4",
            "UID": "3809"
        },
        {
            "Longitude": "104.15421",
            "MID": "4112",
            "address": "四川省成都市成华区万宇路交叉口西50米（近和雨路）",
            "name": "锦绣城",
            "Latitude": "30.62937",
            "n_car": "4",
            "UID": "3810"
        },
        {
            "Longitude": "104.08963",
            "MID": "3371",
            "address": "四川省成都市成华区赤虎桥东路26号",
            "name": "香澜半岛",
            "Latitude": "30.70285",
            "n_car": "4",
            "UID": "3811"
        },
        {
            "Longitude": "104.10148",
            "MID": "4566",
            "address": "四川省成都市成华区建设路9号",
            "name": "高地中心",
            "Latitude": "30.67081",
            "n_car": "6",
            "UID": "3812"
        },
        {
            "Longitude": "104.10589",
            "MID": "3401",
            "address": "四川省成都市成华区云龙南路19号",
            "name": "龙城小区",
            "Latitude": "30.70279",
            "n_car": "4",
            "UID": "3813"
        },
        {
            "Longitude": "104.16098",
            "MID": "3455",
            "address": "四川省成都市成华区宝耳路2号",
            "name": "龙潭大学生创业园",
            "Latitude": "30.69494",
            "n_car": "6",
            "UID": "3814"
        },
        {
            "Longitude": "104.16103",
            "MID": "3456",
            "address": "四川省成都市成华区宝耳路2号",
            "name": "龙潭总部经济城",
            "Latitude": "30.69532",
            "n_car": "4",
            "UID": "3815"
        },
        {
            "Longitude": "104.17794",
            "MID": "3688",
            "address": "四川省成都市成华区龙潭水乡西一门（近华翰路）",
            "name": "龙潭水乡（西一门）",
            "Latitude": "30.68952",
            "n_car": "4",
            "UID": "3816"
        },
        {
            "Longitude": "104.2244",
            "MID": "5869",
            "address": "四川省成都市龙泉驿区车城东七路733号",
            "name": "三盛·都会城",
            "Latitude": "30.52198",
            "n_car": "4",
            "UID": "3817"
        },
        {
            "Longitude": "104.18183",
            "MID": "5870",
            "address": "四川省成都市龙泉驿区太平路与江华路交叉口北200米",
            "name": "下土桥停车场",
            "Latitude": "30.66516",
            "n_car": "4",
            "UID": "3818"
        },
        {
            "Longitude": "104.307095",
            "MID": "5149",
            "address": "四川省成都市龙泉驿区锦绣路178号",
            "name": "东方虹花苑",
            "Latitude": "30.609612",
            "n_car": "4",
            "UID": "3819"
        },
        {
            "Longitude": "104.315692",
            "MID": "5453",
            "address": "四川省成都市龙泉驿区同安镇阳光城阳光大道138号（博瑞酒店对面）",
            "name": "中粮御岭湾",
            "Latitude": "30.610094",
            "n_car": "4",
            "UID": "3820"
        },
        {
            "Longitude": "104.16539",
            "MID": "4678",
            "address": "四川省成都市龙泉驿区十陵农平路205号",
            "name": "农家综合市场",
            "Latitude": "30.66653",
            "n_car": "4",
            "UID": "3821"
        },
        {
            "Longitude": "104.16059",
            "MID": "4612",
            "address": "四川省成都市龙泉驿区十陵东虹路中段60号附近",
            "name": "农家综合市场分场",
            "Latitude": "30.65143",
            "n_car": "4",
            "UID": "3822"
        },
        {
            "Longitude": "104.270757",
            "MID": "5313",
            "address": "四川省成都市龙泉驿区龙都南路537号",
            "name": "凯伦阳光酒店-龙泉店",
            "Latitude": "30.574802",
            "n_car": "4",
            "UID": "3823"
        },
        {
            "Longitude": "104.3074",
            "MID": "4906",
            "address": "四川省成都市龙泉驿区阳光大道11号博瑞花园酒店",
            "name": "博瑞花园酒店",
            "Latitude": "30.6016",
            "n_car": "4",
            "UID": "3824"
        },
        {
            "Longitude": "104.32828",
            "MID": "4157",
            "address": "四川省成都市龙泉驿区双槐村十五组",
            "name": "双槐村停车场",
            "Latitude": "30.63467",
            "n_car": "4",
            "UID": "3825"
        },
        {
            "Longitude": "104.27251",
            "MID": "4677",
            "address": "四川省成都市龙泉驿区桃园路1号",
            "name": "和锦花园餐厅",
            "Latitude": "30.55438",
            "n_car": "4",
            "UID": "3826"
        },
        {
            "Longitude": "104.17498",
            "MID": "4153",
            "address": "四川省成都市龙泉驿区十陵下街69号",
            "name": "宏军大酒店",
            "Latitude": "30.65049",
            "n_car": "4",
            "UID": "3827"
        },
        {
            "Longitude": "104.24953",
            "MID": "4605",
            "address": "四川省成都市龙泉驿区航天南路18号",
            "name": "山水时尚酒店",
            "Latitude": "30.54943",
            "n_car": "6",
            "UID": "3828"
        },
        {
            "Longitude": "104.19644",
            "MID": "4580",
            "address": "四川省成都市龙泉驿区龙城大道9号",
            "name": "师大现代花园",
            "Latitude": "30.57699",
            "n_car": "4",
            "UID": "3829"
        },
        {
            "Longitude": "104.21841",
            "MID": "4609",
            "address": "四川省成都市龙泉驿区西河镇新官山路139号",
            "name": "恒雨后现代城",
            "Latitude": "30.6552",
            "n_car": "4",
            "UID": "3830"
        },
        {
            "Longitude": "104.15727",
            "MID": "4903",
            "address": "四川省成都市龙泉驿区惠王陵东路332号",
            "name": "惠王陵停车场",
            "Latitude": "30.6181",
            "n_car": "4",
            "UID": "3831"
        },
        {
            "Longitude": "104.18893",
            "MID": "5948",
            "address": "四川省成都市龙泉驿区十陵镇太平村3组209号",
            "name": "成东济世医院",
            "Latitude": "30.6695",
            "n_car": "4",
            "UID": "3832"
        },
        {
            "Longitude": "104.26801",
            "MID": "4607",
            "address": "四川省成都市龙泉驿区成洛大道5899号（西博西南食品城正大门）",
            "name": "成都西博西南食品城",
            "Latitude": "30.65116",
            "n_car": "4",
            "UID": "3833"
        },
        {
            "Longitude": "104.305536",
            "MID": "5455",
            "address": "四川省成都市龙泉驿区同安镇同德街2号",
            "name": "成都雅豪假日酒店",
            "Latitude": "30.59686",
            "n_car": "4",
            "UID": "3834"
        },
        {
            "Longitude": "104.167955",
            "MID": "5344",
            "address": "四川省成都市龙泉驿区十陵灵龙路宁江社区西",
            "name": "拉雅茶艺会馆",
            "Latitude": "30.65502",
            "n_car": "4",
            "UID": "3835"
        },
        {
            "Longitude": "104.24338",
            "MID": "4581",
            "address": "四川省成都市龙泉驿区驿泉路76号",
            "name": "新龙酒店",
            "Latitude": "30.57052",
            "n_car": "4",
            "UID": "3836"
        },
        {
            "Longitude": "104.23077",
            "MID": "4606",
            "address": "四川省成都市龙泉驿区经开区南二路19号",
            "name": "海顿广场",
            "Latitude": "30.53758",
            "n_car": "4",
            "UID": "3837"
        },
        {
            "Longitude": "104.23838",
            "MID": "4579",
            "address": "四川省成都市龙泉驿区北京路299号",
            "name": "翡丽酒店",
            "Latitude": "30.56491",
            "n_car": "4",
            "UID": "3838"
        },
        {
            "Longitude": "104.27077",
            "MID": "4608",
            "address": "四川省成都市龙泉驿区成洛大道5899号（西博西南食品城东大门）",
            "name": "西博西南食品城东大门",
            "Latitude": "30.65196",
            "n_car": "4",
            "UID": "3839"
        },
        {
            "Longitude": "104.16551",
            "MID": "4578",
            "address": "四川省成都市龙泉驿区惠王陵东路公交站口",
            "name": "车行天下",
            "Latitude": "30.61925",
            "n_car": "4",
            "UID": "3840"
        },
        {
            "Longitude": "104.16711",
            "MID": "4156",
            "address": "四川省成都市龙泉驿区青龙村7组300号",
            "name": "青龙停车场",
            "Latitude": "30.63489",
            "n_car": "4",
            "UID": "3841"
        },
        {
            "Longitude": "104.22697",
            "MID": "4177",
            "address": "四川省成都市龙泉驿区柏学中路666号",
            "name": "龙腾东麓城",
            "Latitude": "30.52001",
            "n_car": "4",
            "UID": "3842"
        },
        {
            "Longitude": "104.17038",
            "MID": "4176",
            "address": "四川省成都市龙泉驿区蜀王大道183号",
            "name": "龙锦湾假日酒店",
            "Latitude": "30.64942",
            "n_car": "4",
            "UID": "3843"
        },
        {
            "Longitude": "104.19447",
            "MID": "5956",
            "address": "四川省成都市青白江区弥牟镇佳飞国际建材城二号门",
            "name": "佳飞国际建材城2号门",
            "Latitude": "30.86439",
            "n_car": "4",
            "UID": "3844"
        },
        {
            "Longitude": "104.18938",
            "MID": "4597",
            "address": "四川省成都市青白江区弥牟镇正兴路99号（俊翔型材市场3号门）",
            "name": "俊翔型材市场3号门",
            "Latitude": "30.87015",
            "n_car": "4",
            "UID": "3845"
        },
        {
            "Longitude": "104.19378",
            "MID": "4598",
            "address": "四川省成都市青白江区弥牟镇正兴路99号（俊翔型材市场售楼部）",
            "name": "俊翔型材市场东门",
            "Latitude": "30.86535",
            "n_car": "4",
            "UID": "3846"
        },
        {
            "Longitude": "104.27477",
            "MID": "4613",
            "address": "四川省成都市青白江区大湾街道凤凰大道二段公园世家小区外红线区内",
            "name": "公园世家",
            "Latitude": "30.89533",
            "n_car": "4",
            "UID": "3847"
        },
        {
            "Longitude": "104.28305",
            "MID": "5592",
            "address": "四川省成都市青白江区凤凰大道三段附近(凤凰湖湿地公园正对面)",
            "name": "凤凰湖国际社区",
            "Latitude": "30.887915",
            "n_car": "4",
            "UID": "3848"
        },
        {
            "Longitude": "104.24771",
            "MID": "4256",
            "address": "四川省成都市青白江区金华大道二段551号附1号",
            "name": "千盛百货青白江店",
            "Latitude": "30.88678",
            "n_car": "4",
            "UID": "3849"
        },
        {
            "Longitude": "104.25472",
            "MID": "5511",
            "address": "四川省成都市青白江区成(金)青快速通道和大港路交叉口",
            "name": "大港建材城",
            "Latitude": "30.8145",
            "n_car": "4",
            "UID": "3850"
        },
        {
            "Longitude": "104.25475",
            "MID": "5987",
            "address": "四川省成都市青白江区凤凰西七路11号",
            "name": "天府欧城",
            "Latitude": "30.8948",
            "n_car": "8",
            "UID": "3851"
        },
        {
            "Longitude": "104.27957",
            "MID": "5724",
            "address": "四川省成都市青白江区祥红路215号",
            "name": "天星安置小区二期",
            "Latitude": "30.83261",
            "n_car": "4",
            "UID": "3852"
        },
        {
            "Longitude": "104.26028",
            "MID": "5728",
            "address": "四川省成都市青白江区大弯粮食巷35号",
            "name": "川化宾馆",
            "Latitude": "30.87907",
            "n_car": "4",
            "UID": "3853"
        },
        {
            "Longitude": "104.25597",
            "MID": "4621",
            "address": "四川省成都市青白江区石家碾中路88号凤凰湖天全酒店门边",
            "name": "成都凤凰湖天泉酒店",
            "Latitude": "30.89007",
            "n_car": "4",
            "UID": "3854"
        },
        {
            "Longitude": "104.267732",
            "MID": "5721",
            "address": "四川省成都市青白江区同华大道259号",
            "name": "清溪园",
            "Latitude": "30.88985",
            "n_car": "4",
            "UID": "3855"
        },
        {
            "Longitude": "104.27434",
            "MID": "4616",
            "address": "四川省成都市青白江区学苑路218号瀚城新天地商业街",
            "name": "瀚城新天地",
            "Latitude": "30.88041",
            "n_car": "4",
            "UID": "3856"
        },
        {
            "Longitude": "104.25967",
            "MID": "4596",
            "address": "四川省成都市青白江区凤凰西六路1号",
            "name": "英祥商业中心",
            "Latitude": "30.89401",
            "n_car": "4",
            "UID": "3857"
        },
        {
            "Longitude": "104.299198",
            "MID": "5180",
            "address": "四川省成都市青白江区云石路366号",
            "name": "蝶舞合兴B区",
            "Latitude": "30.731258",
            "n_car": "4",
            "UID": "3858"
        },
        {
            "Longitude": "104.27835",
            "MID": "5172",
            "address": "四川省成都市青白江区凤凰路336号",
            "name": "誉府仕家",
            "Latitude": "30.8885",
            "n_car": "6",
            "UID": "3859"
        },
        {
            "Longitude": "104.30932",
            "MID": "4966",
            "address": "四川省成都市青白江区城厢镇茶花村二组",
            "name": "贵和农业公园",
            "Latitude": "30.86475",
            "n_car": "4",
            "UID": "3860"
        },
        {
            "Longitude": "104.28921",
            "MID": "5726",
            "address": "四川省成都市青白江区大同镇大同路111号",
            "name": "钱江凤凰城",
            "Latitude": "30.87572",
            "n_car": "4",
            "UID": "3861"
        },
        {
            "Longitude": "104.32055",
            "MID": "4595",
            "address": "四川省成都市青白江区城厢镇茶花村7组青云酒店大门口（青云酒店）",
            "name": "青云酒店",
            "Latitude": "30.86376",
            "n_car": "4",
            "UID": "3862"
        },
        {
            "Longitude": "104.29686",
            "MID": "4254",
            "address": "四川省成都市青白江区青白江大道2666号",
            "name": "青龙国际建材城",
            "Latitude": "30.85242",
            "n_car": "4",
            "UID": "3863"
        },
        {
            "Longitude": "104.29422",
            "MID": "4255",
            "address": "四川省成都市青白江区青白大道2666号",
            "name": "青龙国际建材城A栋",
            "Latitude": "30.84987",
            "n_car": "4",
            "UID": "3864"
        },
        {
            "Longitude": "104.254852",
            "MID": "5179",
            "address": "四川省成都市青白江区青江北路188号（近馨苑旁）",
            "name": "齐盛.艺品",
            "Latitude": "30.885495",
            "n_car": "4",
            "UID": "3865"
        },
        {
            "Longitude": "104.14789",
            "MID": "4279",
            "address": "四川省成都市新都区蜀龙大道1981号",
            "name": "Iu hotel酒店",
            "Latitude": "30.75615",
            "n_car": "4",
            "UID": "3866"
        },
        {
            "Longitude": "104.13145",
            "MID": "5654",
            "address": "四川省成都市新都区三河大道23号",
            "name": "三河街道办事处",
            "Latitude": "30.78123",
            "n_car": "6",
            "UID": "3867"
        },
        {
            "Longitude": "104.11837",
            "MID": "4475",
            "address": "四川省成都市新都区中集大道555号",
            "name": "中集车辆园商业广场",
            "Latitude": "30.80059",
            "n_car": "4",
            "UID": "3868"
        },
        {
            "Longitude": "104.06699",
            "MID": "4477",
            "address": "四川省成都市新都区斑竹园毗河路",
            "name": "云堤Ⅱ·维罗纳",
            "Latitude": "30.81751",
            "n_car": "4",
            "UID": "3869"
        },
        {
            "Longitude": "104.14271",
            "MID": "4280",
            "address": "四川省成都市新都区蜀龙大道1980号",
            "name": "保利皇冠假日酒店",
            "Latitude": "30.75484",
            "n_car": "4",
            "UID": "3870"
        },
        {
            "Longitude": "104.17653",
            "MID": "3234",
            "address": "四川省成都市新都区香城南街180号",
            "name": "兴城时代",
            "Latitude": "30.80991",
            "n_car": "6",
            "UID": "3871"
        },
        {
            "Longitude": "104.15325",
            "MID": "5816",
            "address": "四川省成都市新都区金府街88号",
            "name": "军屯镇政府",
            "Latitude": "30.89923",
            "n_car": "4",
            "UID": "3872"
        },
        {
            "Longitude": "104.07791",
            "MID": "4199",
            "address": "四川省成都市新都区北星大道二段（近忠柳路)",
            "name": "北欧商业广场北门",
            "Latitude": "30.81551",
            "n_car": "4",
            "UID": "3873"
        },
        {
            "Longitude": "104.07672",
            "MID": "4200",
            "address": "四川省成都市新都区云兴路347号",
            "name": "北欧商业广场西门",
            "Latitude": "30.81439",
            "n_car": "4",
            "UID": "3874"
        },
        {
            "Longitude": "104.07433",
            "MID": "4201",
            "address": "四川省成都市新都区中利路66号",
            "name": "北欧知识城",
            "Latitude": "30.81493",
            "n_car": "4",
            "UID": "3875"
        },
        {
            "Longitude": "104.08278",
            "MID": "4357",
            "address": "四川省成都市新都区兴贸大道139号",
            "name": "国际美博城（北门）",
            "Latitude": "30.81479",
            "n_car": "4",
            "UID": "3876"
        },
        {
            "Longitude": "104.08116",
            "MID": "4356",
            "address": "四川省成都市新都区兴贸大道139号",
            "name": "国际美博城（西门）",
            "Latitude": "30.81458",
            "n_car": "4",
            "UID": "3877"
        },
        {
            "Longitude": "104.22778",
            "MID": "5315",
            "address": "四川省成都市新都区泰北路308号",
            "name": "外城·泰兴里",
            "Latitude": "30.7913",
            "n_car": "4",
            "UID": "3878"
        },
        {
            "Longitude": "104.08412",
            "MID": "4615",
            "address": "北星大道新义街29-33号海宁皮革城北600米大观轩",
            "name": "大观轩",
            "Latitude": "30.82868",
            "n_car": "4",
            "UID": "3879"
        },
        {
            "Longitude": "104.15604",
            "MID": "4479",
            "address": "四川省成都市新都区蓉都大道南二段53号",
            "name": "天府香城印象",
            "Latitude": "30.80741",
            "n_car": "4",
            "UID": "3880"
        },
        {
            "Longitude": "104.0176",
            "MID": "4806",
            "address": "四川省成都市新都区龙桥镇繁川家具大道南段365号",
            "name": "家和家园国际家居商城",
            "Latitude": "30.8526",
            "n_car": "5",
            "UID": "3881"
        },
        {
            "Longitude": "104.15987",
            "MID": "4163",
            "address": "四川省成都市新都区宝光大道中段126号（近宝光街）",
            "name": "川视宝光宾馆",
            "Latitude": "30.83251",
            "n_car": "7",
            "UID": "3882"
        },
        {
            "Longitude": "104.13074",
            "MID": "4161",
            "address": "四川省成都市新都区物流大道88号（近顺运路）",
            "name": "成都传化公路港",
            "Latitude": "30.79695",
            "n_car": "4",
            "UID": "3883"
        },
        {
            "Longitude": "104.05902",
            "MID": "4162",
            "address": "四川省成都市新都区斑竹园南岸路111号（近南星路）",
            "name": "成都银巢酒店",
            "Latitude": "30.81308",
            "n_car": "5",
            "UID": "3884"
        },
        {
            "Longitude": "104.09611",
            "MID": "5317",
            "address": "四川省成都市新都区柏水路356号",
            "name": "新都北部商城管委会",
            "Latitude": "30.82098",
            "n_car": "4",
            "UID": "3885"
        },
        {
            "Longitude": "104.15625",
            "MID": "4572",
            "address": "四川省成都市新都区北新路115号",
            "name": "新都区交通局",
            "Latitude": "30.83777",
            "n_car": "5",
            "UID": "3886"
        },
        {
            "Longitude": "104.15666",
            "MID": "4030",
            "address": "四川省成都市新都区桂湖中路92号",
            "name": "新都区政府",
            "Latitude": "30.82601",
            "n_car": "3",
            "UID": "3887"
        },
        {
            "Longitude": "104.17842",
            "MID": "3236",
            "address": "四川省成都市新都区马超东路289号",
            "name": "新都金融中心",
            "Latitude": "30.81077",
            "n_car": "10",
            "UID": "3888"
        },
        {
            "Longitude": "104.21748",
            "MID": "4624",
            "address": "四川省成都市新都区兴业大道一段1095号",
            "name": "普河社区",
            "Latitude": "30.80358",
            "n_car": "4",
            "UID": "3889"
        },
        {
            "Longitude": "104.15906",
            "MID": "4674",
            "address": "四川省成都市新都区曲景路95号",
            "name": "毗河印象酒店",
            "Latitude": "30.79027",
            "n_car": "4",
            "UID": "3890"
        },
        {
            "Longitude": "104.14161",
            "MID": "4568",
            "address": "四川省成都市新都区新都镇宝光大道南段697号",
            "name": "汉城假日酒店",
            "Latitude": "30.80783",
            "n_car": "4",
            "UID": "3891"
        },
        {
            "Longitude": "104.22939",
            "MID": "5823",
            "address": "四川省成都市新都区泰北街268号",
            "name": "泰兴镇政府",
            "Latitude": "30.78984",
            "n_car": "4",
            "UID": "3892"
        },
        {
            "Longitude": "104.08058",
            "MID": "4679",
            "address": "四川省成都市新都区北星大道二段877号",
            "name": "海宁皮革城",
            "Latitude": "30.8229",
            "n_car": "4",
            "UID": "3893"
        },
        {
            "Longitude": "104.06226",
            "MID": "4355",
            "address": "四川省成都市新都区斑竹园镇雷家桥新崇路",
            "name": "海龙山庄",
            "Latitude": "30.83343",
            "n_car": "4",
            "UID": "3894"
        },
        {
            "Longitude": "104.06341",
            "MID": "4284",
            "address": "四川省成都市新都区大丰镇先驱大道2号",
            "name": "润和柏栎酒店",
            "Latitude": "30.76089",
            "n_car": "4",
            "UID": "3895"
        },
        {
            "Longitude": "104.02729",
            "MID": "5815",
            "address": "四川省成都市新都区新九路3506号",
            "name": "清流镇政府",
            "Latitude": "30.93712",
            "n_car": "6",
            "UID": "3896"
        },
        {
            "Longitude": "104.13934",
            "MID": "3186",
            "address": "四川省成都市新都区蜀龙大道1528号",
            "name": "漫花庄园（东门）",
            "Latitude": "30.76579",
            "n_car": "4",
            "UID": "3897"
        },
        {
            "Longitude": "104.13983",
            "MID": "3188",
            "address": "四川省成都市新都区蜀龙大道1528号（近银杏园路）",
            "name": "漫花庄园（南门）",
            "Latitude": "30.76206",
            "n_car": "4",
            "UID": "3898"
        },
        {
            "Longitude": "104.09361",
            "MID": "4285",
            "address": "四川省成都市新都区踏水路688号",
            "name": "盛世香河A区",
            "Latitude": "30.81511",
            "n_car": "3",
            "UID": "3899"
        },
        {
            "Longitude": "104.09571",
            "MID": "4573",
            "address": "四川省成都市新都区荣柳路42号",
            "name": "盛世香河B区",
            "Latitude": "30.81417",
            "n_car": "4",
            "UID": "3900"
        },
        {
            "Longitude": "104.09476",
            "MID": "4286",
            "address": "四川省成都市新都区荣柳路142号",
            "name": "盛世香河C区",
            "Latitude": "30.81236",
            "n_car": "4",
            "UID": "3901"
        },
        {
            "Longitude": "104.17892",
            "MID": "4478",
            "address": "四川省成都市新都区马超东路2号",
            "name": "维也纳广场",
            "Latitude": "30.81219",
            "n_car": "4",
            "UID": "3902"
        },
        {
            "Longitude": "104.16275",
            "MID": "4480",
            "address": "四川省成都市新都区工业大道东段299号",
            "name": "融发爱立方",
            "Latitude": "30.80515",
            "n_car": "4",
            "UID": "3903"
        },
        {
            "Longitude": "104.14662",
            "MID": "4283",
            "address": "四川省成都市新都区香城大道18号",
            "name": "金座和悦酒店",
            "Latitude": "30.81971",
            "n_car": "4",
            "UID": "3904"
        },
        {
            "Longitude": "104.15985",
            "MID": "4287",
            "address": "四川省成都市新都区金都路129号",
            "name": "银座酒店",
            "Latitude": "30.81288",
            "n_car": "3",
            "UID": "3905"
        },
        {
            "Longitude": "104.12792",
            "MID": "5327",
            "address": "四川省成都市新都区西园路17号",
            "name": "锦门",
            "Latitude": "30.78027",
            "n_car": "4",
            "UID": "3906"
        },
        {
            "Longitude": "104.19842",
            "MID": "4481",
            "address": "新都区木兰镇绕城高速与成金青快速通道交汇处",
            "name": "龙和国际茶城",
            "Latitude": "30.73961",
            "n_car": "4",
            "UID": "3907"
        },
        {
            "Longitude": "103.861891",
            "MID": "5778",
            "address": "四川省成都市温江区花都大道西段588号",
            "name": "七彩花都B区",
            "Latitude": "30.700124",
            "n_car": "4",
            "UID": "3908"
        },
        {
            "Longitude": "103.83701",
            "MID": "4262",
            "address": "四川省成都市温江区万春路290号",
            "name": "万春苑",
            "Latitude": "30.71021",
            "n_car": "4",
            "UID": "3909"
        },
        {
            "Longitude": "103.90049",
            "MID": "4967",
            "address": "四川省成都市温江区共耕2组500",
            "name": "共耕社区",
            "Latitude": "30.67114",
            "n_car": "4",
            "UID": "3910"
        },
        {
            "Longitude": "103.88617",
            "MID": "3290",
            "address": "四川省成都市温江区光华大道三段406号",
            "name": "凤凰社区居委会",
            "Latitude": "30.68095",
            "n_car": "4",
            "UID": "3911"
        },
        {
            "Longitude": "103.879201",
            "MID": "5358",
            "address": "四川省成都市温江区江安路196号",
            "name": "千禧河畔-B区",
            "Latitude": "30.688842",
            "n_car": "4",
            "UID": "3912"
        },
        {
            "Longitude": "103.81877",
            "MID": "4524",
            "address": "四川省成都市温江区黄金路四组203号",
            "name": "友平苑",
            "Latitude": "30.71121",
            "n_car": "4",
            "UID": "3913"
        },
        {
            "Longitude": "103.80766",
            "MID": "5349",
            "address": "四川省成都市温江区金盘路199号",
            "name": "友庆·兰亭",
            "Latitude": "30.70903",
            "n_car": "4",
            "UID": "3914"
        },
        {
            "Longitude": "103.859736",
            "MID": "5181",
            "address": "四川省成都市温江区凤翔大道（永泉镇明光村9组301号）",
            "name": "四维轩",
            "Latitude": "30.667588",
            "n_car": "4",
            "UID": "3915"
        },
        {
            "Longitude": "103.82601",
            "MID": "3452",
            "address": "四川省成都市温江区国色天香2号门",
            "name": "国色天乡生态停车场",
            "Latitude": "30.71974",
            "n_car": "6",
            "UID": "3916"
        },
        {
            "Longitude": "103.84216",
            "MID": "4611",
            "address": "四川省成都市温江区文化路138号",
            "name": "大好河山酒店",
            "Latitude": "30.69774",
            "n_car": "4",
            "UID": "3917"
        },
        {
            "Longitude": "103.83632",
            "MID": "4178",
            "address": "四川省成都市温江区天乡后街5号附118号",
            "name": "天乡后街停车场",
            "Latitude": "30.72686",
            "n_car": "4",
            "UID": "3918"
        },
        {
            "Longitude": "103.8104",
            "MID": "6029",
            "address": "四川省成都市温江区海科路688号",
            "name": "学府尚郡三号门",
            "Latitude": "30.67942",
            "n_car": "4",
            "UID": "3919"
        },
        {
            "Longitude": "103.86906",
            "MID": "4174",
            "address": "四川省成都市温江区骑士大道301号",
            "name": "宏源花园",
            "Latitude": "30.66316",
            "n_car": "4",
            "UID": "3920"
        },
        {
            "Longitude": "103.82316",
            "MID": "4261",
            "address": "四川省成都市温江区黄金路10号",
            "name": "富丽大酒店",
            "Latitude": "30.70243",
            "n_car": "3",
            "UID": "3921"
        },
        {
            "Longitude": "103.83465",
            "MID": "6022",
            "address": "四川省成都市温江区温泉大道三段456号",
            "name": "巴尔玛工业园",
            "Latitude": "30.6633",
            "n_car": "4",
            "UID": "3922"
        },
        {
            "Longitude": "103.83665",
            "MID": "4619",
            "address": "四川省成都市温江区科盛路东段44号",
            "name": "府都医院",
            "Latitude": "30.67375",
            "n_car": "4",
            "UID": "3923"
        },
        {
            "Longitude": "103.85423",
            "MID": "3678",
            "address": "四川省成都市温江区锦泉街271号（近光华大道三段）",
            "name": "德昆新天地",
            "Latitude": "30.69256",
            "n_car": "8",
            "UID": "3924"
        },
        {
            "Longitude": "103.85548",
            "MID": "4152",
            "address": "四川省成都市温江区光华大道三段1868号",
            "name": "德昆新天地（3栋）",
            "Latitude": "30.69142",
            "n_car": "8",
            "UID": "3925"
        },
        {
            "Longitude": "103.86443",
            "MID": "4175",
            "address": "四川省成都市温江区惠民路458号附2号",
            "name": "惠民医院",
            "Latitude": "30.71116",
            "n_car": "4",
            "UID": "3926"
        },
        {
            "Longitude": "103.86617",
            "MID": "5990",
            "address": "四川省成都市温江区公平镇太极路1号",
            "name": "成都再新汽车贸易公司",
            "Latitude": "30.70237",
            "n_car": "4",
            "UID": "3927"
        },
        {
            "Longitude": "103.85337",
            "MID": "5475",
            "address": "四川省成都市温江区金马镇刘柑路90号",
            "name": "新春社区",
            "Latitude": "30.64245",
            "n_car": "4",
            "UID": "3928"
        },
        {
            "Longitude": "103.84178",
            "MID": "4637",
            "address": "四川省成都市温江区万春镇春晖路78号",
            "name": "明芳居",
            "Latitude": "30.7318",
            "n_car": "4",
            "UID": "3929"
        },
        {
            "Longitude": "103.841726",
            "MID": "5350",
            "address": "四川省成都市温江区大同路55号",
            "name": "春江里",
            "Latitude": "30.725686",
            "n_car": "4",
            "UID": "3930"
        },
        {
            "Longitude": "103.83581",
            "MID": "5988",
            "address": "四川省成都市温江区骑士大道与海旺路交叉口西南200米",
            "name": "朴趣庄园",
            "Latitude": "30.64949",
            "n_car": "4",
            "UID": "3931"
        },
        {
            "Longitude": "103.84551",
            "MID": "4029",
            "address": "四川省成都市温江区两河路东段95号1栋附19号",
            "name": "柳城谊苑",
            "Latitude": "30.69344",
            "n_car": "4",
            "UID": "3932"
        },
        {
            "Longitude": "103.82067",
            "MID": "4260",
            "address": "四川省成都市温江区德通桥路99号",
            "name": "格澜威尔",
            "Latitude": "30.69858",
            "n_car": "4",
            "UID": "3933"
        },
        {
            "Longitude": "103.81585",
            "MID": "6025",
            "address": "四川省成都市温江区金马镇温泉大道四段锦蓉路1号",
            "name": "森龙中立数字产业基地",
            "Latitude": "30.65169",
            "n_car": "4",
            "UID": "3934"
        },
        {
            "Longitude": "103.82457",
            "MID": "4259",
            "address": "四川省成都市温江区青啤大道319号",
            "name": "海科电子信息产业园",
            "Latitude": "30.66544",
            "n_car": "4",
            "UID": "3935"
        },
        {
            "Longitude": "103.86494",
            "MID": "5100",
            "address": "四川省成都市温江区花土路258号",
            "name": "涌泉公立卫生院",
            "Latitude": "30.67468",
            "n_car": "4",
            "UID": "3936"
        },
        {
            "Longitude": "103.84746",
            "MID": "6016",
            "address": "四川省成都市温江区温泉大道二段503号",
            "name": "温江卫生计生局",
            "Latitude": "30.67088",
            "n_car": "5",
            "UID": "3937"
        },
        {
            "Longitude": "103.90026",
            "MID": "5989",
            "address": "四川省成都市温江区八一路南段128号",
            "name": "田园花篱",
            "Latitude": "30.71236",
            "n_car": "4",
            "UID": "3938"
        },
        {
            "Longitude": "103.80971",
            "MID": "4520",
            "address": "四川省成都市温江区海科路东段77号1栋",
            "name": "翰林世家",
            "Latitude": "30.67441",
            "n_car": "4",
            "UID": "3939"
        },
        {
            "Longitude": "103.895256",
            "MID": "5357",
            "address": "四川省成都市温江区光华大道七星街花土桥前行100米",
            "name": "老王竹林鸡",
            "Latitude": "30.671599",
            "n_car": "4",
            "UID": "3940"
        },
        {
            "Longitude": "103.916484",
            "MID": "5150",
            "address": "四川省成都市温江区芙蓉路333号",
            "name": "芙蓉古城",
            "Latitude": "30.712253",
            "n_car": "4",
            "UID": "3941"
        },
        {
            "Longitude": "103.918796",
            "MID": "5151",
            "address": "四川省成都市温江区永宁镇开金路888号",
            "name": "芙蓉古城紫云园",
            "Latitude": "30.722773",
            "n_car": "4",
            "UID": "3942"
        },
        {
            "Longitude": "103.86945",
            "MID": "5314",
            "address": "四川省成都市温江区共和路169号",
            "name": "花土e区-北门",
            "Latitude": "30.66952",
            "n_car": "4",
            "UID": "3943"
        },
        {
            "Longitude": "103.80915",
            "MID": "4521",
            "address": "四川省成都市温江区生态大道踏水段1215号",
            "name": "花花世界生态庄园",
            "Latitude": "30.73031",
            "n_car": "4",
            "UID": "3944"
        },
        {
            "Longitude": "103.871979",
            "MID": "5164",
            "address": "四川省成都市温江区温泉大道一段336号",
            "name": "蝴蝶泉欢乐水世界",
            "Latitude": "30.69264",
            "n_car": "4",
            "UID": "3945"
        },
        {
            "Longitude": "103.87105",
            "MID": "5471",
            "address": "四川省成都市温江区花都大道西段9号",
            "name": "融信智慧广场",
            "Latitude": "30.69447",
            "n_car": "4",
            "UID": "3946"
        },
        {
            "Longitude": "103.83956",
            "MID": "4330",
            "address": "四川省成都市温江区春江南路电力学院后门旁",
            "name": "西园",
            "Latitude": "30.72065",
            "n_car": "4",
            "UID": "3947"
        },
        {
            "Longitude": "103.83173",
            "MID": "4252",
            "address": "四川省成都市温江区万春镇春江南路1139号",
            "name": "西宫假日酒店",
            "Latitude": "30.72676",
            "n_car": "4",
            "UID": "3948"
        },
        {
            "Longitude": "103.81055",
            "MID": "4636",
            "address": "四川省成都市温江区海峡科技园新华路二段199号",
            "name": "雷迪波尔",
            "Latitude": "30.65269",
            "n_car": "4",
            "UID": "3949"
        },
        {
            "Longitude": "103.92266",
            "MID": "3730",
            "address": "四川省成都市双流区东升街道永安路佳禾永福二区",
            "name": "三里坝社区",
            "Latitude": "30.55751",
            "n_car": "4",
            "UID": "3950"
        },
        {
            "Longitude": "103.92274",
            "MID": "4349",
            "address": "四川省成都市双流区万家社区八组220号",
            "name": "中信汽车市场",
            "Latitude": "30.63791",
            "n_car": "4",
            "UID": "3951"
        },
        {
            "Longitude": "103.97275",
            "MID": "3686",
            "address": "四川省成都市双流区双华大道三段55号",
            "name": "中储物流",
            "Latitude": "30.53795",
            "n_car": "4",
            "UID": "3952"
        },
        {
            "Longitude": "103.91844",
            "MID": "4814",
            "address": "四川省成都市双流区东升街道佳居路66号",
            "name": "佳兆业8号",
            "Latitude": "30.59139",
            "n_car": "4",
            "UID": "3953"
        },
        {
            "Longitude": "103.93026",
            "MID": "4771",
            "address": "四川省成都市双流区葛陌路1657号",
            "name": "佳兆业·现代城",
            "Latitude": "30.60496",
            "n_car": "4",
            "UID": "3954"
        },
        {
            "Longitude": "104.05393",
            "MID": "4627",
            "address": "四川省成都市双流区华阳街道绿野路3段212号（佳兆业上品2号门）",
            "name": "佳兆业君汇上品2号门",
            "Latitude": "30.49317",
            "n_car": "4",
            "UID": "3955"
        },
        {
            "Longitude": "104.05331",
            "MID": "4845",
            "address": "四川省成都市双流区华阳镇街道佳兆业君汇上品4号门",
            "name": "佳兆业君汇上品4号门",
            "Latitude": "30.49071",
            "n_car": "4",
            "UID": "3956"
        },
        {
            "Longitude": "103.96457",
            "MID": "3685",
            "address": "四川省成都市双流区西航大道中段766号（近腾飞四路）",
            "name": "佳尚物流",
            "Latitude": "30.52167",
            "n_car": "4",
            "UID": "3957"
        },
        {
            "Longitude": "103.90909",
            "MID": "2808",
            "address": "四川省成都市双流区九江镇成新蒲大道（九江）",
            "name": "元瑞国际家居商城",
            "Latitude": "30.63659",
            "n_car": "10",
            "UID": "3958"
        },
        {
            "Longitude": "103.9731",
            "MID": "4811",
            "address": "四川省成都市双流区腾飞二路539号",
            "name": "创维西南培训中心",
            "Latitude": "30.52599",
            "n_car": "4",
            "UID": "3959"
        },
        {
            "Longitude": "103.98325",
            "MID": "3048",
            "address": "四川省成都市双流区双华路580号",
            "name": "华体照明",
            "Latitude": "30.53171",
            "n_car": "4",
            "UID": "3960"
        },
        {
            "Longitude": "104.04845",
            "MID": "4006",
            "address": "四川省成都市双流区站华路西150米",
            "name": "南湖公园（东门）",
            "Latitude": "30.49903",
            "n_car": "3",
            "UID": "3961"
        },
        {
            "Longitude": "104.04401",
            "MID": "4007",
            "address": "四川省成都市双流区华阳街道南湖东路",
            "name": "南湖公园（婚誓廊）",
            "Latitude": "30.49748",
            "n_car": "4",
            "UID": "3962"
        },
        {
            "Longitude": "104.04071",
            "MID": "4008",
            "address": "四川省成都市双流区站华路西50米",
            "name": "南湖公园（西门）",
            "Latitude": "30.49538",
            "n_car": "3",
            "UID": "3963"
        },
        {
            "Longitude": "104.06763",
            "MID": "2810",
            "address": "四川省成都市双流区天府大道南段2036号",
            "name": "双华麓港",
            "Latitude": "30.49189",
            "n_car": "8",
            "UID": "3964"
        },
        {
            "Longitude": "104.00286",
            "MID": "4555",
            "address": "四川省成都市双流区珠江北路11号",
            "name": "双台医院",
            "Latitude": "30.57943",
            "n_car": "4",
            "UID": "3965"
        },
        {
            "Longitude": "103.95698",
            "MID": "3788",
            "address": "四川省成都市双流区双流国际机场T1停车场",
            "name": "双流国际机场T1",
            "Latitude": "30.57951",
            "n_car": "30",
            "UID": "3966"
        },
        {
            "Longitude": "103.95691",
            "MID": "3789",
            "address": "四川省成都市双流区双流国际机场T2停车场",
            "name": "双流国际机场T2",
            "Latitude": "30.57398",
            "n_car": "74",
            "UID": "3967"
        },
        {
            "Longitude": "103.93717",
            "MID": "4113",
            "address": "四川省成都市双流区千子门路1号",
            "name": "合力达西部食品城",
            "Latitude": "30.62886",
            "n_car": "4",
            "UID": "3968"
        },
        {
            "Longitude": "103.90067",
            "MID": "4158",
            "address": "四川省成都市双流区双温路198号",
            "name": "四川爱华学院",
            "Latitude": "30.64229",
            "n_car": "4",
            "UID": "3969"
        },
        {
            "Longitude": "104.05161",
            "MID": "4205",
            "address": "四川省成都市双流区华阳镇华新下街213号",
            "name": "太阳城园林宾馆",
            "Latitude": "30.51859",
            "n_car": "6",
            "UID": "3970"
        },
        {
            "Longitude": "103.99097",
            "MID": "4987",
            "address": "四川省成都市双流区西航港长江路一段8号",
            "name": "宗申流溪丽园-北门",
            "Latitude": "30.57107",
            "n_car": "4",
            "UID": "3971"
        },
        {
            "Longitude": "103.992938",
            "MID": "5575",
            "address": "四川省成都市双流区泰山路201号",
            "name": "宗申流溪丽园-南门",
            "Latitude": "30.569508",
            "n_car": "4",
            "UID": "3972"
        },
        {
            "Longitude": "103.95269",
            "MID": "4558",
            "address": "四川省成都市双流区西航港大道中二段260号",
            "name": "宗申赛纳维（东门）",
            "Latitude": "30.60138",
            "n_car": "4",
            "UID": "3973"
        },
        {
            "Longitude": "103.94738",
            "MID": "4559",
            "address": "四川省成都市双流区龙桥路100号",
            "name": "宗申赛纳维（西门）",
            "Latitude": "30.59878",
            "n_car": "4",
            "UID": "3974"
        },
        {
            "Longitude": "103.91077",
            "MID": "5004",
            "address": "四川省成都市双流区一杆旗北街105号",
            "name": "尚善雅居",
            "Latitude": "30.57586",
            "n_car": "4",
            "UID": "3975"
        },
        {
            "Longitude": "103.827272",
            "MID": "5779",
            "address": "四川省成都市双流区金桥镇金红路岷江村二组300号",
            "name": "岷江村村委会",
            "Latitude": "30.561755",
            "n_car": "4",
            "UID": "3976"
        },
        {
            "Longitude": "104.02871",
            "MID": "4004",
            "address": "四川省成都市双流区华府大道758号",
            "name": "川西人居",
            "Latitude": "30.52748",
            "n_car": "4",
            "UID": "3977"
        },
        {
            "Longitude": "103.91349",
            "MID": "4813",
            "address": "四川省成都市双流区藏卫路南二段799号",
            "name": "广都国际酒店",
            "Latitude": "30.55738",
            "n_car": "4",
            "UID": "3978"
        },
        {
            "Longitude": "103.86941",
            "MID": "4155",
            "address": "四川省成都市双流区交通路三段281号",
            "name": "彭镇客运站",
            "Latitude": "30.58754",
            "n_car": "4",
            "UID": "3979"
        },
        {
            "Longitude": "104.05581",
            "MID": "5383",
            "address": "四川省成都市双流区伏龙路二段237号",
            "name": "德正酒店(华阳店) ",
            "Latitude": "30.52038",
            "n_car": "4",
            "UID": "3980"
        },
        {
            "Longitude": "104.08112",
            "MID": "4010",
            "address": "四川省成都市双流区府滨北路52号",
            "name": "怡丰花园",
            "Latitude": "30.56341",
            "n_car": "4",
            "UID": "3981"
        },
        {
            "Longitude": "103.97458",
            "MID": "5342",
            "address": "四川省成都市双流区机场路常乐一段36号",
            "name": "成信家园",
            "Latitude": "30.57769",
            "n_car": "4",
            "UID": "3982"
        },
        {
            "Longitude": "103.998233",
            "MID": "5871",
            "address": "四川省成都市双流区双华路三段988号",
            "name": "成都捷胜名车园",
            "Latitude": "30.523047",
            "n_car": "4",
            "UID": "3983"
        },
        {
            "Longitude": "104.06596",
            "MID": "5722",
            "address": "四川省成都市双流区天府大道南段2028号",
            "name": "成都石化国际酒店",
            "Latitude": "30.49778",
            "n_car": "4",
            "UID": "3984"
        },
        {
            "Longitude": "103.91895",
            "MID": "5341",
            "address": "四川省成都市双流区广都大道一段2号",
            "name": "成都禧悦酒店",
            "Latitude": "30.56497",
            "n_car": "4",
            "UID": "3985"
        },
        {
            "Longitude": "104.14926",
            "MID": "4910",
            "address": "四川省成都市双流区南天寺村8组（新塬遛鸡哥农场）",
            "name": "新塬遛鸡哥农场",
            "Latitude": "30.40276",
            "n_car": "4",
            "UID": "3986"
        },
        {
            "Longitude": "104.09309",
            "MID": "5430",
            "address": "四川省成都市双流区吉龙二街与应龙北三路交叉口",
            "name": "新怡华庭-东区",
            "Latitude": "30.537906",
            "n_car": "4",
            "UID": "3987"
        },
        {
            "Longitude": "103.90728",
            "MID": "4159",
            "address": "四川省成都市双流区航林路888号",
            "name": "星宸皇家金煦酒店",
            "Latitude": "30.59052",
            "n_car": "5",
            "UID": "3988"
        },
        {
            "Longitude": "103.9311",
            "MID": "4854",
            "address": "四川省成都市双流区星空路一段248号",
            "name": "星空花园",
            "Latitude": "30.58769",
            "n_car": "4",
            "UID": "3989"
        },
        {
            "Longitude": "103.90723",
            "MID": "5881",
            "address": "四川省成都市双流区胜利镇蚕从东路",
            "name": "曾家店社区",
            "Latitude": "30.50608",
            "n_car": "4",
            "UID": "3990"
        },
        {
            "Longitude": "104.04171",
            "MID": "4553",
            "address": "四川省成都市双流区华阳通济桥下街219号",
            "name": "杰德汽车生活广场",
            "Latitude": "30.50546",
            "n_car": "4",
            "UID": "3991"
        },
        {
            "Longitude": "103.902722",
            "MID": "5578",
            "address": "四川省成都市双流区涧槽南街81号",
            "name": "板桥社区",
            "Latitude": "30.557538",
            "n_car": "4",
            "UID": "3992"
        },
        {
            "Longitude": "103.91852",
            "MID": "4351",
            "address": "四川省成都市双流区棠湖南路1段1号（棠湖公园旁）",
            "name": "棠湖宾馆",
            "Latitude": "30.57452",
            "n_car": "4",
            "UID": "3993"
        },
        {
            "Longitude": "104.13371",
            "MID": "3373",
            "address": "四川省成都市双流区麓山大道二段19号",
            "name": "正熙雅居酒店",
            "Latitude": "30.48189",
            "n_car": "4",
            "UID": "3994"
        },
        {
            "Longitude": "103.92548",
            "MID": "4203",
            "address": "四川省成都市双流区双楠大道中段888号",
            "name": "汇都商贸城",
            "Latitude": "30.60891",
            "n_car": "5",
            "UID": "3995"
        },
        {
            "Longitude": "103.98061",
            "MID": "4354",
            "address": "四川省成都市双流区西航港街道机场路常乐一段5号",
            "name": "海纳尔酒店",
            "Latitude": "30.57443",
            "n_car": "4",
            "UID": "3996"
        },
        {
            "Longitude": "103.921005",
            "MID": "5414",
            "address": "四川省成都市双流区大井西街193号",
            "name": "海纳百川物流园",
            "Latitude": "30.646744",
            "n_car": "4",
            "UID": "3997"
        },
        {
            "Longitude": "104.03104",
            "MID": "4554",
            "address": "四川省成都市双流区和顺路一段92号",
            "name": "清河庭院",
            "Latitude": "30.49981",
            "n_car": "4",
            "UID": "3998"
        },
        {
            "Longitude": "103.98542",
            "MID": "3941",
            "address": "四川省成都市双流区文星大道205号",
            "name": "湖夹滩社区",
            "Latitude": "30.54858",
            "n_car": "4",
            "UID": "3999"
        },
        {
            "Longitude": "103.90811",
            "MID": "5000",
            "address": "四川省成都市双流区牧马山路2段12号",
            "name": "牧马山易城",
            "Latitude": "30.52493",
            "n_car": "4",
            "UID": "4000"
        },
        {
            "Longitude": "103.94213",
            "MID": "3733",
            "address": "四川省成都市双流区成双大道南段1328号",
            "name": "田园城市酒店",
            "Latitude": "30.59054",
            "n_car": "4",
            "UID": "4001"
        },
        {
            "Longitude": "104.13971",
            "MID": "4557",
            "address": "四川省成都市双流区东山大道二段西50米",
            "name": "由由草莓乐园",
            "Latitude": "30.40619",
            "n_car": "6",
            "UID": "4002"
        },
        {
            "Longitude": "103.93357",
            "MID": "4965",
            "address": "四川省成都市双流区长顺路一段1号",
            "name": "畅春花园酒店",
            "Latitude": "30.57249",
            "n_car": "4",
            "UID": "4003"
        },
        {
            "Longitude": "103.90664",
            "MID": "5580",
            "address": "四川省成都市双流区胜利镇维新街31号",
            "name": "白塔社区",
            "Latitude": "30.501493",
            "n_car": "4",
            "UID": "4004"
        },
        {
            "Longitude": "103.96699",
            "MID": "4197",
            "address": "四川省成都市双流区永安镇白果村村民居委会",
            "name": "白果社区",
            "Latitude": "30.40699",
            "n_car": "4",
            "UID": "4005"
        },
        {
            "Longitude": "103.93154",
            "MID": "3732",
            "address": "四川省成都市双流区长冶路四段87号",
            "name": "白鹭家园",
            "Latitude": "30.56252",
            "n_car": "4",
            "UID": "4006"
        },
        {
            "Longitude": "104.10269",
            "MID": "3670",
            "address": "四川省成都市双流区安和路100号",
            "name": "盛世嘉苑",
            "Latitude": "30.56378",
            "n_car": "4",
            "UID": "4007"
        },
        {
            "Longitude": "104.09701",
            "MID": "4253",
            "address": "四川省成都市双流区中和镇中柏路龙祥佳苑向南200米",
            "name": "睿龙庭院生态火锅",
            "Latitude": "30.54465",
            "n_car": "4",
            "UID": "4008"
        },
        {
            "Longitude": "103.903265",
            "MID": "5579",
            "address": "四川省成都市双流区胜利镇农耕路60号",
            "name": "瞿上城花园",
            "Latitude": "30.505467",
            "n_car": "4",
            "UID": "4009"
        },
        {
            "Longitude": "103.894743",
            "MID": "6018",
            "address": "四川省成都市双流区九江街道石牛社区（近新浦大道）",
            "name": "石牛社区",
            "Latitude": "30.635365",
            "n_car": "4",
            "UID": "4010"
        },
        {
            "Longitude": "103.91593",
            "MID": "4258",
            "address": "四川省成都市双流区藏卫路南二段100号",
            "name": "空港上辰",
            "Latitude": "30.56381",
            "n_car": "4",
            "UID": "4011"
        },
        {
            "Longitude": "103.85433",
            "MID": "5424",
            "address": "四川省成都市双流区金桥镇菜园路二段697号",
            "name": "红石小区",
            "Latitude": "30.5518",
            "n_car": "4",
            "UID": "4012"
        },
        {
            "Longitude": "103.91336",
            "MID": "3731",
            "address": "四川省成都市双流区双九路一段66号",
            "name": "菁华园酒店",
            "Latitude": "30.60688",
            "n_car": "4",
            "UID": "4013"
        },
        {
            "Longitude": "103.91924",
            "MID": "4350",
            "address": "四川省成都市双流区星空路四段479号",
            "name": "西南摩托展销中心",
            "Latitude": "30.63595",
            "n_car": "4",
            "UID": "4014"
        },