{
    "network_node_evcard": [
        {
            "Longitude": "120.133068",
            "MID": "6273",
            "address": "江苏省盐城市亭湖区解放中路2号",
            "name": "中国电信盐城分公司",
            "Latitude": "33.381424",
            "n_car": "4",
            "UID": "2940"
        },
        {
            "Longitude": "120.121944",
            "MID": "5356",
            "address": "江苏省盐城市亭湖区开放大道200号",
            "name": "五金机电城",
            "Latitude": "33.4275",
            "n_car": "2",
            "UID": "2941"
        },
        {
            "Longitude": "120.105239",
            "MID": "5332",
            "address": "江苏省盐城市亭湖区新洋路23号",
            "name": "亭湖区中西结合医院",
            "Latitude": "33.419571",
            "n_car": "2",
            "UID": "2942"
        },
        {
            "Longitude": "120.191824",
            "MID": "5214",
            "address": "江苏省盐城市青年东路与希望大道交叉口",
            "name": "亭湖区文化艺术中心",
            "Latitude": "33.390181",
            "n_car": "2",
            "UID": "2943"
        },
        {
            "Longitude": "120.150998",
            "MID": "5626",
            "address": "江苏省盐城市解放南路245号",
            "name": "凤凰文化广场",
            "Latitude": "33.346263",
            "n_car": "7",
            "UID": "2944"
        },
        {
            "Longitude": "120.133055",
            "MID": "4892",
            "address": "江苏省盐城市解放南路15号（南门大桥南东侧）",
            "name": "南门华府",
            "Latitude": "33.378611",
            "n_car": "10",
            "UID": "2945"
        },
        {
            "Longitude": "120.225191",
            "MID": "5216",
            "address": "江苏省盐城市经济技术开发区新都东路98号",
            "name": "卡迪欢乐世界",
            "Latitude": "33.383922",
            "n_car": "5",
            "UID": "2946"
        },
        {
            "Longitude": "120.137627",
            "MID": "5622",
            "address": "江苏省盐城市亭湖区青年中路26号",
            "name": "圣华名都苑",
            "Latitude": "33.364257",
            "n_car": "4",
            "UID": "2947"
        },
        {
            "Longitude": "120.208614",
            "MID": "5331",
            "address": "江苏省盐城市天山南路18号",
            "name": "悦达泰和国际健身会所",
            "Latitude": "33.354851",
            "n_car": "3",
            "UID": "2948"
        },
        {
            "Longitude": "120.223611",
            "MID": "4867",
            "address": "江苏省盐城市经济技术开发区黄山南路12号",
            "name": "新嘉源人才公寓",
            "Latitude": "33.367222",
            "n_car": "5",
            "UID": "2949"
        },
        {
            "Longitude": "120.243889",
            "MID": "4856",
            "address": "江苏省盐城市亭湖区东环路69号",
            "name": "新能源汽车产业园",
            "Latitude": "33.355278",
            "n_car": "20",
            "UID": "2950"
        },
        {
            "Longitude": "120.158611",
            "MID": "5328",
            "address": "江苏省盐城市东进中路1号(盐渎公园南门往南100米路东)",
            "name": "水城度假酒店",
            "Latitude": "33.361388",
            "n_car": "5",
            "UID": "2951"
        },
        {
            "Longitude": "120.096762",
            "MID": "5330",
            "address": "江苏省盐城市亭湖区开放大道437号",
            "name": "沿海国际灯饰城",
            "Latitude": "33.441333",
            "n_car": "3",
            "UID": "2952"
        },
        {
            "Longitude": "120.1526",
            "MID": "5965",
            "address": "江苏省盐城市建军东路131号",
            "name": "盐城亭湖区卫计委",
            "Latitude": "33.38888",
            "n_car": "3",
            "UID": "2953"
        },
        {
            "Longitude": "120.26148",
            "MID": "5207",
            "address": "江苏省盐城市经济技术开发区漓江路66号",
            "name": "盐城光电产业园",
            "Latitude": "33.357914",
            "n_car": "2",
            "UID": "2954"
        },
        {
            "Longitude": "120.218855",
            "MID": "5215",
            "address": "江苏省盐城市新都路与东环路交叉口国际会展中心",
            "name": "盐城国际会展中心",
            "Latitude": "33.380012",
            "n_car": "3",
            "UID": "2955"
        },
        {
            "Longitude": "120.228333",
            "MID": "4865",
            "address": "江苏省盐城市经济技术开发区嫩江路10号（近华山路）",
            "name": "盐城开发区市民之家",
            "Latitude": "33.379444",
            "n_car": "3",
            "UID": "2956"
        },
        {
            "Longitude": "120.22466",
            "MID": "5880",
            "address": "江苏省盐城市综合保税区香港路1号",
            "name": "盐城综合保税区",
            "Latitude": "33.354082",
            "n_car": "5",
            "UID": "2957"
        },
        {
            "Longitude": "120.166813",
            "MID": "5205",
            "address": "江苏省盐城市城南新区西环路282号(盐城交通技师学院北门内)近海洋路",
            "name": "盐城航空假日酒店",
            "Latitude": "33.316653",
            "n_car": "5",
            "UID": "2958"
        },
        {
            "Longitude": "120.162201",
            "MID": "6279",
            "address": "江苏省盐城市亭湖区文港路与青年路交叉口",
            "name": "盐城豪德广场",
            "Latitude": "33.378308",
            "n_car": "5",
            "UID": "2959"
        },
        {
            "Longitude": "120.176276",
            "MID": "5709",
            "address": "江苏省盐城市亭湖区文港南路105号",
            "name": "盐城高新技术创业园",
            "Latitude": "33.366087",
            "n_car": "2",
            "UID": "2960"
        },
        {
            "Longitude": "120.164627",
            "MID": "5264",
            "address": "江苏省盐城市亭湖区范公中路99号",
            "name": "金座广场",
            "Latitude": "33.385461",
            "n_car": "10",
            "UID": "2961"
        },
        {
            "Longitude": "120.145555",
            "MID": "4870",
            "address": "江苏省盐城市开放大道69号(与毓龙路交界处）",
            "name": "阅读青年会酒店",
            "Latitude": "33.393611",
            "n_car": "5",
            "UID": "2962"
        },
        {
            "Longitude": "120.268318",
            "MID": "5212",
            "address": "江苏省盐城市经济技术开发区九华山路50号韩资工业园邻里中心",
            "name": "韩资工业园邻里中心",
            "Latitude": "33.383953",
            "n_car": "2",
            "UID": "2963"
        },
        {
            "Longitude": "120.24478",
            "MID": "4134",
            "address": "江苏省盐城市",
            "name": "（不开放）盐城测试中心",
            "Latitude": "33.355141",
            "n_car": "3",
            "UID": "2964"
        },
        {
            "Longitude": "120.158501",
            "MID": "4871",
            "address": "江苏省盐城市盐都区解放南路267号",
            "name": "明城锦江大酒店",
            "Latitude": "33.340118",
            "n_car": "6",
            "UID": "2965"
        },
        {
            "Longitude": "120.108188",
            "MID": "5734",
            "address": "江苏省盐城市盐都区盐渎路与新204国道交汇处",
            "name": "盐城物联大厦",
            "Latitude": "33.304769",
            "n_car": "2",
            "UID": "2966"
        },
        {
            "Longitude": "120.178715",
            "MID": "5725",
            "address": "江苏省盐城市盐渎路与人民南路交汇处",
            "name": "盐城领秀嘉园",
            "Latitude": "33.339362",
            "n_car": "3",
            "UID": "2967"
        },
        {
            "Longitude": "120.137451",
            "MID": "4998",
            "address": "江苏省盐城市盐都区新都路29号",
            "name": "紫金大厦",
            "Latitude": "33.329331",
            "n_car": "10",
            "UID": "2968"
        },
        {
            "Longitude": "120.136666",
            "MID": "5628",
            "address": "江苏省盐城市盐都区新都街道(城南新区)西环路1号",
            "name": "金大洋城市广场",
            "Latitude": "33.343333",
            "n_car": "5",
            "UID": "2969"
        },
        {
            "Longitude": "120.134542",
            "MID": "5624",
            "address": "江苏省盐城市西环路东进路交叉口",
            "name": "金庭苑（东）",
            "Latitude": "33.351309",
            "n_car": "5",
            "UID": "2970"
        }
    ]
}