{
    "network_node_evcard": [
        {
            "address": "黄山市屯溪区迎宾大道与045县道交叉口西北50米 ",
            "n_car": "5",
            "Latitude": "29.724296",
            "MID": "5423",
            "Longitude": "118.253264",
            "UID": "3170",
            "name": "屯溪区九龙区管委会"
        },
        {
            "address": "黄山市屯溪区屯光大道6号",
            "n_car": "7",
            "Latitude": "29.724554",
            "MID": "5422",
            "Longitude": "118.334793",
            "UID": "3171",
            "name": "屯溪区屯光镇人民政府"
        },
        {
            "address": "安徽省黄山市屯溪区奕棋镇机场大道11号政府大门口",
            "n_car": "7",
            "Latitude": "29.727735",
            "MID": "5367",
            "Longitude": "118.25797",
            "UID": "3172",
            "name": "屯溪区弈棋镇人民政府"
        },
        {
            "address": "安徽省黄山市屯溪区奕棋镇林塘村村委会（迎宾大道）",
            "n_car": "5",
            "Latitude": "29.735239",
            "MID": "5426",
            "Longitude": "118.241763",
            "UID": "3173",
            "name": "屯溪区林塘村村委会"
        },
        {
            "address": "安徽省黄山市屯溪区迎宾大道北50米（东晶超市对面）",
            "n_car": "5",
            "Latitude": "29.739",
            "MID": "5425",
            "Longitude": "118.230442",
            "UID": "3174",
            "name": "屯溪区查塘村村委会 "
        },
        {
            "address": "安徽省黄山市稽灵山路1号",
            "n_car": "6",
            "Latitude": "29.700629",
            "MID": "5370",
            "Longitude": "118.298746",
            "UID": "3175",
            "name": "屯溪区阳湖镇人民政府"
        },
        {
            "address": "安徽省黄山市屯溪区s220公路屯溪龙山实验小学北邻",
            "n_car": "6",
            "Latitude": "29.704314",
            "MID": "5369",
            "Longitude": "118.27449",
            "UID": "3176",
            "name": "屯溪区黎阳镇政府"
        },
        {
            "address": "安徽省黄山市屯溪区屯光大道22号金太阳家具建材市场A座东",
            "n_car": "8",
            "Latitude": "29.729214",
            "MID": "5914",
            "Longitude": "118.343025",
            "UID": "3177",
            "name": "金太阳家具建材市场"
        },
        {
            "address": "安徽省黄山市屯溪区商山路7号",
            "n_car": "8",
            "Latitude": "29.709244",
            "MID": "5930",
            "Longitude": "118.277462",
            "UID": "3178",
            "name": "银河湾小区"
        },
        {
            "address": "黄山市屯溪区徽州大道东南侧(黄口大桥南端十字路口)",
            "n_car": "6",
            "Latitude": "29.708305",
            "MID": "5933",
            "Longitude": "118.334124",
            "UID": "3179",
            "name": "黄口桥（山田东园）"
        },
        {
            "address": "安徽省黄山市屯溪区齐云大道27号",
            "n_car": "6",
            "Latitude": "29.730435",
            "MID": "5683",
            "Longitude": "118.289321",
            "UID": "3180",
            "name": "黄山市交通运输局"
        }
    ]
}