{
    "network_node_evcard": [
        {
            "Latitude": "31.831",
            "Longitude": "120.126388",
            "UID": "2702",
            "name": "三河口集镇停车场",
            "address": "江苏省常州市天宁区郑陆镇三河口邮政支局附近",
            "n_car": "5",
            "MID": "4062"
        },
        {
            "Latitude": "31.792222",
            "Longitude": "119.9925",
            "UID": "2703",
            "name": "天宁区人民法院",
            "address": "江苏省常州市竹林北路208号天宁区人民法院",
            "n_car": "3",
            "MID": "5847"
        },
        {
            "Latitude": "31.79477",
            "Longitude": "119.99343",
            "UID": "2704",
            "name": "天宁区政务服务中心",
            "address": "常州市天宁区竹林北路256号",
            "n_car": "5",
            "MID": "2072"
        },
        {
            "Latitude": "31.8188",
            "Longitude": "120.0105",
            "UID": "2705",
            "name": "天宁区文化创意产业园",
            "address": "江苏省常州市天宁区河海东路11号",
            "n_car": "3",
            "MID": "4065"
        },
        {
            "Latitude": "31.79417",
            "Longitude": "119.99543",
            "UID": "2706",
            "name": "天宁科技促进中心",
            "address": "常州市天宁区竹林北路256号天宁科技促进中心东南侧2号门",
            "n_car": "13",
            "MID": "2070"
        },
        {
            "Latitude": "31.783888",
            "Longitude": "119.955277",
            "UID": "2707",
            "name": "天宁街道办事处",
            "address": "江苏省常州市天宁区晋陵中路511号",
            "n_car": "2",
            "MID": "4067"
        },
        {
            "Latitude": "31.756765",
            "Longitude": "119.939235",
            "UID": "2708",
            "name": "富邦广场",
            "address": "常州市天宁区中吴大道1318号",
            "n_car": "5",
            "MID": "5985"
        },
        {
            "Latitude": "31.791111",
            "Longitude": "119.966667",
            "UID": "2709",
            "name": "常州火车站",
            "address": "江苏省常州市竹林西路51号客运中心社会车辆DE区地下停车场",
            "n_car": "20",
            "MID": "5206"
        },
        {
            "Latitude": "31.80967",
            "Longitude": "120.005621",
            "UID": "2710",
            "name": "恒生科技园",
            "address": "江苏省常州市天宁区北塘河路8号",
            "n_car": "3",
            "MID": "5251"
        },
        {
            "Latitude": "31.8554",
            "Longitude": "120.1479",
            "UID": "2711",
            "name": "武澄科技创业园",
            "address": "常州市天宁区郑陆镇武澄科技创业园(河横公路)",
            "n_car": "5",
            "MID": "4061"
        },
        {
            "Latitude": "31.795833",
            "Longitude": "120.081944",
            "UID": "2712",
            "name": "武进不锈公司焊管车间",
            "address": "常州市武澄西路郑陆和平工业园北700米",
            "n_car": "4",
            "MID": "4045"
        },
        {
            "Latitude": "31.7874",
            "Longitude": "120.034722",
            "UID": "2713",
            "name": "武进不锈公司穿孔车间",
            "address": "江苏省常州市天宁区恒安路与蓝天路交叉口西100米",
            "n_car": "5",
            "MID": "4072"
        },
        {
            "Latitude": "31.820277",
            "Longitude": "120.158055",
            "UID": "2714",
            "name": "焦溪古镇停车场",
            "address": "常州市郑陆镇焦溪红星路焦溪影剧院旁",
            "n_car": "5",
            "MID": "4063"
        },
        {
            "Latitude": "31.8394",
            "Longitude": "120.129166",
            "UID": "2715",
            "name": "牟家文体公园",
            "address": "常州市郑陆镇牟家村委牟家文体公园停车场",
            "n_car": "5",
            "MID": "4060"
        },
        {
            "Latitude": "31.833888",
            "Longitude": "120.125",
            "UID": "2716",
            "name": "牟家村委会",
            "address": "江苏省常州市郑陆镇牟家村147号",
            "n_car": "3",
            "MID": "4058"
        },
        {
            "Latitude": "31.839444",
            "Longitude": "120.1336",
            "UID": "2717",
            "name": "紫星饭店",
            "address": "江苏省常州市天宁区牟家村委牟家生态农家旅游观光园内",
            "n_car": "5",
            "MID": "4059"
        },
        {
            "Latitude": "31.783055",
            "Longitude": "119.975833",
            "UID": "2718",
            "name": "红梅街道办事处",
            "address": "常州市天宁区竹林南路14号",
            "n_car": "4",
            "MID": "4043"
        },
        {
            "Latitude": "31.79282",
            "Longitude": "120.01812",
            "UID": "2719",
            "name": "美吉特国际精工厅",
            "address": "常州市天宁区美吉特家居建材馆青洋北路101-1",
            "n_car": "5",
            "MID": "4893"
        },
        {
            "Latitude": "31.763333",
            "Longitude": "119.967222",
            "UID": "2720",
            "name": "茶山街道办事处",
            "address": "江苏省常州市天宁区龙游路4号",
            "n_car": "3",
            "MID": "4047"
        },
        {
            "Latitude": "31.747222",
            "Longitude": "119.988611",
            "UID": "2721",
            "name": "菱港大厦",
            "address": "江苏省常州市天宁区中吴大道1009号",
            "n_car": "5",
            "MID": "4066"
        },
        {
            "Latitude": "31.823282",
            "Longitude": "120.080313",
            "UID": "2722",
            "name": "郑陆镇政府",
            "address": "江苏省常州市天宁区郑陆镇镇南路19号",
            "n_car": "11",
            "MID": "2228"
        },
        {
            "Latitude": "31.74111",
            "Longitude": "119.98793",
            "UID": "2723",
            "name": "采菱公寓-62号楼",
            "address": "常州市天宁区雕庄街道翰墨堂朱翰钧书画艺术中心门口",
            "n_car": "4",
            "MID": "4844"
        },
        {
            "Latitude": "31.741666",
            "Longitude": "119.984722",
            "UID": "2724",
            "name": "采菱科技园",
            "address": "常州市雕庄街道中吴大道凤凰路38号（园内停车场）",
            "n_car": "5",
            "MID": "4044"
        },
        {
            "Latitude": "31.832922",
            "Longitude": "120.11083",
            "UID": "2725",
            "name": "金陵干燥厂",
            "address": "江苏省常州市郑陆镇常河路501号，时代汽车服务中心对面。",
            "n_car": "4",
            "MID": "4785"
        },
        {
            "Latitude": "31.738611",
            "Longitude": "120.011111",
            "UID": "2726",
            "name": "雕庄街道办事处",
            "address": "江苏省常州市天宁区中吴大道700号",
            "n_car": "3",
            "MID": "4046"
        },
        {
            "Latitude": "31.799237",
            "Longitude": "119.996223",
            "UID": "2727",
            "name": "青竹苑社区服务中心",
            "address": "江苏省常州市天宁区新堂北路222号青竹苑社区服务中心",
            "n_car": "3",
            "MID": "5846"
        },
        {
            "Latitude": "31.8187",
            "Longitude": "120.0123",
            "UID": "2728",
            "name": "青龙街道办事处",
            "address": "江苏省常州市天宁区河海东路9号青龙街道",
            "n_car": "3",
            "MID": "4064"
        },
        {
            "Latitude": "31.79495",
            "Longitude": "120.01429",
            "UID": "2729",
            "name": "青龙邻里中心",
            "address": "常州市天宁区竹林北路青龙邻里中心",
            "n_car": "4",
            "MID": "5310"
        },
        {
            "Latitude": "31.831141",
            "Longitude": "120.074578",
            "UID": "2730",
            "name": "（测试）郑陆中学",
            "address": "常州市郑中路2号",
            "n_car": "0",
            "MID": "4196"
        },
        {
            "Latitude": "31.817704",
            "Longitude": "120.010684",
            "UID": "2731",
            "name": "（非运营）文化创意园",
            "address": "江苏省常州市天宁区河海东路11号-1",
            "n_car": "0",
            "MID": "4135"
        },
        {
            "Latitude": "31.773587",
            "Longitude": "119.883042",
            "UID": "2732",
            "name": "泰盈八千里-西门",
            "address": "常州市钟楼区邹傅路泰盈八千里西门",
            "n_car": "5",
            "MID": "5818"
        },
        {
            "Latitude": "31.792482",
            "Longitude": "119.917934",
            "UID": "2733",
            "name": "简爱宾馆",
            "address": "江苏省常州市钟楼区勤业路188号简爱宾馆",
            "n_car": "4",
            "MID": "5203"
        },
        {
            "Latitude": "31.835084",
            "Longitude": "119.982921",
            "UID": "2734",
            "name": "保纳商业广场",
            "address": "江苏省常州市新北区晋陵北路511号保纳商业广场",
            "n_car": "5",
            "MID": "5134"
        },
        {
            "Latitude": "31.814498",
            "Longitude": "119.974968",
            "UID": "2735",
            "name": "常发广场",
            "address": "江苏省常州市新北区太湖东路101-1号",
            "n_car": "5",
            "MID": "5256"
        },
        {
            "Latitude": "31.855101",
            "Longitude": "119.948263",
            "UID": "2736",
            "name": "常州北站城北客运站",
            "address": "江苏省常州市新北区长江北路南二路汽车客运北站地下停车场",
            "n_car": "20",
            "MID": "5208"
        },
        {
            "Latitude": "31.819515",
            "Longitude": "119.962758",
            "UID": "2737",
            "name": "猫山屋智慧酒店",
            "address": "江苏省常州市新北区太湖中路8号猫山屋智慧酒店地下停车库",
            "n_car": "4",
            "MID": "5091"
        },
        {
            "Latitude": "31.827137",
            "Longitude": "119.970302",
            "UID": "2738",
            "name": "道生中心",
            "address": "江苏省常州市新北区通江中路288号道生中心城市商务广场",
            "n_car": "6",
            "MID": "5849"
        },
        {
            "Latitude": "31.710555",
            "Longitude": "119.946666",
            "UID": "2739",
            "name": "云顶新天地",
            "address": "江苏省常州市武进区湖塘虹北路88",
            "n_car": "4",
            "MID": "4068"
        },
        {
            "Latitude": "31.708113",
            "Longitude": "119.764755",
            "UID": "2740",
            "name": "夏溪花木博物馆",
            "address": "江苏省常州市花市路139号",
            "n_car": "4",
            "MID": "5813"
        },
        {
            "Latitude": "31.712691",
            "Longitude": "119.763516",
            "UID": "2741",
            "name": "夏溪花木市场北门",
            "address": "江苏省常州市武进区花市路32号",
            "n_car": "5",
            "MID": "5801"
        },
        {
            "Latitude": "31.71019",
            "Longitude": "119.967531",
            "UID": "2742",
            "name": "小伟大酒店",
            "address": "江苏省常州市湖塘长安家园商铺4-1号",
            "n_car": "5",
            "MID": "5730"
        },
        {
            "Latitude": "31.698424",
            "Longitude": "119.908436",
            "UID": "2743",
            "name": "武进九洲喜来登酒店",
            "address": "江苏省常州市武进区延政西大道1号",
            "n_car": "5",
            "MID": "5949"
        },
        {
            "Latitude": "31.783333",
            "Longitude": "120.034444",
            "UID": "2744",
            "name": "莱森机械制造",
            "address": "常州市武进区郑陆镇恒安路上海华联超市西北150米",
            "n_car": "4",
            "MID": "4434"
        }
    ]
}