{
    "network_node_evcard": [
        {
            "Longitude": "120.744219",
            "MID": "4401",
            "address": "浙江省嘉兴市南湖区禾兴南路680号",
            "name": "e代商务酒店",
            "Latitude": "30.765455",
            "n_car": "12",
            "UID": "3012"
        },
        {
            "Longitude": "120.8247",
            "MID": "4321",
            "address": "浙江省嘉兴市南湖区七星镇兴民路345号",
            "name": "七星卫生院",
            "Latitude": "30.813",
            "n_car": "6",
            "UID": "3013"
        },
        {
            "Longitude": "120.826213",
            "MID": "4294",
            "address": "浙江省嘉兴市南湖区七星路与兴民路交叉口七星派出所内",
            "name": "七星派出所",
            "Latitude": "30.812494",
            "n_car": "4",
            "UID": "3014"
        },
        {
            "Longitude": "120.791088",
            "MID": "5467",
            "address": "浙江省嘉兴市南湖区云东路108号",
            "name": "世合大厦",
            "Latitude": "30.740908",
            "n_car": "4",
            "UID": "3015"
        },
        {
            "Longitude": "120.846582",
            "MID": "5874",
            "address": "浙江省嘉兴市南湖区余步线",
            "name": "世合理想大地",
            "Latitude": "30.709209",
            "n_car": "10",
            "UID": "3016"
        },
        {
            "Longitude": "120.757453",
            "MID": "4882",
            "address": "浙江省嘉兴市南湖区城东路158号",
            "name": "人民公园",
            "Latitude": "30.767032",
            "n_car": "3",
            "UID": "3017"
        },
        {
            "Longitude": "120.825167",
            "MID": "5361",
            "address": "浙江省嘉兴市南湖区七星镇星桥路777号",
            "name": "内河国际集装箱港区",
            "Latitude": "30.826078",
            "n_car": "6",
            "UID": "3018"
        },
        {
            "Longitude": "120.771176",
            "MID": "4430",
            "address": "浙江省嘉兴市南湖区周安路与徐王街交叉口（世纪华联超市边）",
            "name": "凌塘社区居委会",
            "Latitude": "30.779814",
            "n_car": "6",
            "UID": "3019"
        },
        {
            "Longitude": "120.780503",
            "MID": "4436",
            "address": "浙江省嘉兴市南湖区望湖路与景宜路交叉口",
            "name": "南湖区信访局",
            "Latitude": "30.751114",
            "n_car": "6",
            "UID": "3020"
        },
        {
            "Longitude": "120.753111",
            "MID": "4734",
            "address": "浙江省嘉兴市南湖区新马路15号",
            "name": "南湖饭店",
            "Latitude": "30.768387",
            "n_car": "4",
            "UID": "3021"
        },
        {
            "Longitude": "120.816218",
            "MID": "4738",
            "address": " 浙江省嘉兴市南湖区广益路总部商务花园8号楼",
            "name": "嘉兴华悦精品酒店",
            "Latitude": "30.739244",
            "n_car": "4",
            "UID": "3022"
        },
        {
            "Longitude": "120.741488",
            "MID": "4593",
            "address": "浙江省嘉兴市南湖区东升东路1436号",
            "name": "嘉兴嘉湖骨科医院",
            "Latitude": "30.776219",
            "n_car": "4",
            "UID": "3023"
        },
        {
            "Longitude": "120.751374",
            "MID": "4881",
            "address": "浙江省嘉兴市南湖区中环南路618号",
            "name": "嘉兴国际会展中心",
            "Latitude": "30.741067",
            "n_car": "6",
            "UID": "3024"
        },
        {
            "Longitude": "120.73507",
            "MID": "4378",
            "address": "浙江省嘉兴市南湖区中山东路1005号（交通大楼）",
            "name": "嘉兴市交通大楼",
            "Latitude": "30.762971",
            "n_car": "5",
            "UID": "3025"
        },
        {
            "Longitude": "120.752187",
            "MID": "4560",
            "address": "浙江省嘉兴市南湖区迎宾大道88号",
            "name": "嘉兴市博雅酒店",
            "Latitude": "30.742216",
            "n_car": "6",
            "UID": "3026"
        },
        {
            "Longitude": "120.753671",
            "MID": "4408",
            "address": "浙江省嘉兴市南湖区花园路182号",
            "name": "嘉兴市旅游集散中心",
            "Latitude": "30.748683",
            "n_car": "6",
            "UID": "3027"
        },
        {
            "Longitude": "120.742574",
            "MID": "4719",
            "address": "浙江省嘉兴市南湖区禾兴北路125号",
            "name": "嘉兴市青少年宫",
            "Latitude": "30.778236",
            "n_car": "12",
            "UID": "3028"
        },
        {
            "Longitude": "120.751159",
            "MID": "4320",
            "address": "浙江省嘉兴市南湖区府东街与县南街交叉口旁",
            "name": "建设街道办事处",
            "Latitude": "30.763875",
            "n_car": "4",
            "UID": "3029"
        },
        {
            "Longitude": "120.910578",
            "MID": "5603",
            "address": "浙江省嘉兴市南湖区新丰镇绿环生物有限公司以南120米",
            "name": "新中法生态农庄",
            "Latitude": "30.678909",
            "n_car": "4",
            "UID": "3030"
        },
        {
            "Longitude": "120.926646",
            "MID": "4883",
            "address": "浙江省嘉兴市南湖区新丰镇新荷路227号",
            "name": "新丰镇中学",
            "Latitude": "30.714367",
            "n_car": "9",
            "UID": "3031"
        },
        {
            "Longitude": "120.917761",
            "MID": "5199",
            "address": "浙江省嘉兴市南湖区双龙路1458号",
            "name": "新丰镇政府",
            "Latitude": "30.707489",
            "n_car": "9",
            "UID": "3032"
        },
        {
            "Longitude": "120.733399",
            "MID": "4487",
            "address": "浙江省嘉兴市秀洲区东升东路1889号",
            "name": "新嘉街道卫生服务中心",
            "Latitude": "30.773916",
            "n_car": "4",
            "UID": "3033"
        },
        {
            "Longitude": "120.809504",
            "MID": "4319",
            "address": "浙江省嘉兴月亮湾沙滩停车场",
            "name": "月亮湾沙滩",
            "Latitude": "30.812438",
            "n_car": "10",
            "UID": "3034"
        },
        {
            "Longitude": "120.745916",
            "MID": "4344",
            "address": "浙江省嘉兴市南湖区梅湾街东区16,17号(禾兴南路靠近环城南路)",
            "name": "梅湾街",
            "Latitude": "30.755627",
            "n_car": "8",
            "UID": "3035"
        },
        {
            "Longitude": "120.82067",
            "MID": "4587",
            "address": "浙江省嘉兴市南湖区亚太路705号",
            "name": "浙江清华长三角研究院",
            "Latitude": "30.738015",
            "n_car": "4",
            "UID": "3036"
        },
        {
            "Longitude": "120.722085",
            "MID": "5618",
            "address": "浙江省嘉兴市南湖区中环西路589号",
            "name": "浙江省荣军医院",
            "Latitude": "30.755478",
            "n_car": "4",
            "UID": "3037"
        },
        {
            "Longitude": "120.777828",
            "MID": "5613",
            "address": "浙江省嘉兴市湘溪路48号",
            "name": "湘城大厦",
            "Latitude": "30.77127",
            "n_car": "9",
            "UID": "3038"
        },
        {
            "Longitude": "120.828336",
            "MID": "5185",
            "address": "浙江省嘉兴市南湖区兴民路与桥埭路交叉口",
            "name": "湘家荡中心农贸市场",
            "Latitude": "30.809496",
            "n_car": "6",
            "UID": "3039"
        },
        {
            "Longitude": "120.766449",
            "MID": "5853",
            "address": "浙江省嘉兴市南湖区纺工路1235号",
            "name": "翰林府第",
            "Latitude": "30.740902",
            "n_car": "5",
            "UID": "3040"
        },
        {
            "Longitude": "120.763937",
            "MID": "4429",
            "address": "浙江省嘉兴市南湖区东升东路229号",
            "name": "解放街道办事处",
            "Latitude": "30.778269",
            "n_car": "8",
            "UID": "3041"
        },
        {
            "Longitude": "120.757399",
            "MID": "6157",
            "address": "浙江省嘉兴市南湖区三元路40号",
            "name": "锦绣农贸市场",
            "Latitude": "30.781348",
            "n_car": "4",
            "UID": "3042"
        },
        {
            "Longitude": "120.673379",
            "MID": "5600",
            "address": " 浙江省嘉兴市秀洲区洪业路228号",
            "name": "上海交大嘉兴科技园",
            "Latitude": "30.749666",
            "n_car": "8",
            "UID": "3043"
        },
        {
            "Longitude": "120.648135",
            "MID": "6275",
            "address": "浙江省嘉兴市秀洲区嘉洪大道2199号",
            "name": "中国嘉兴国际毛衫城",
            "Latitude": "30.677621",
            "n_car": "5",
            "UID": "3044"
        },
        {
            "Longitude": "120.663982",
            "MID": "4804",
            "address": "浙江省嘉兴市秀洲区加创路1509号",
            "name": "中国节能嘉兴产业园",
            "Latitude": "30.769705",
            "n_car": "6",
            "UID": "3045"
        },
        {
            "Longitude": "120.693643",
            "MID": "4437",
            "address": "浙江省嘉兴市秀洲区中山西路1388号（君特酒店）",
            "name": "君特酒店",
            "Latitude": "30.758994",
            "n_car": "5",
            "UID": "3046"
        },
        {
            "Longitude": "120.694043",
            "MID": "4491",
            "address": "浙江省嘉兴市秀洲区中山西路1388号君特酒店东",
            "name": "君特酒店（姆妈菜）",
            "Latitude": "30.75909",
            "n_car": "5",
            "UID": "3047"
        },
        {
            "Longitude": "120.710179",
            "MID": "5777",
            "address": "浙江省嘉兴市秀洲区洪兴路1593",
            "name": "嘉兴公安局秀洲区分局",
            "Latitude": "30.76661",
            "n_car": "6",
            "UID": "3048"
        },
        {
            "Longitude": "120.656914",
            "MID": "6272",
            "address": "浙江省嘉兴市秀洲区八字路501号",
            "name": "嘉兴华智实业有限公司",
            "Latitude": "30.764249",
            "n_car": "6",
            "UID": "3049"
        },
        {
            "Longitude": "120.641557",
            "MID": "5275",
            "address": "浙江省嘉兴市秀洲区新塍大道与八字路交叉口东南测",
            "name": "国鸿机动车检测中心",
            "Latitude": "30.756909",
            "n_car": "5",
            "UID": "3050"
        },
        {
            "Longitude": "120.710967",
            "MID": "5241",
            "address": "浙江省嘉兴市秀洲区昌盛中路288号",
            "name": "新城街道办事处",
            "Latitude": "30.763414",
            "n_car": "4",
            "UID": "3051"
        },
        {
            "Longitude": "120.615294",
            "MID": "5599",
            "address": "浙江省嘉兴市秀洲区新塍镇兴新路511号",
            "name": "新塍镇公共服务中心",
            "Latitude": "30.787545",
            "n_car": "10",
            "UID": "3052"
        },
        {
            "Longitude": "120.689996",
            "MID": "4773",
            "address": "浙江省嘉兴市秀洲区洪兴路2369号",
            "name": "浙江新安国际医院",
            "Latitude": "30.768474",
            "n_car": "5",
            "UID": "3053"
        },
        {
            "Longitude": "120.692123",
            "MID": "4807",
            "address": "浙江省嘉兴市秀洲区洪兴路2323号",
            "name": "海洲之星",
            "Latitude": "30.765475",
            "n_car": "5",
            "UID": "3054"
        },
        {
            "Longitude": "120.660385",
            "MID": "4793",
            "address": "浙江省嘉兴市秀洲区运河路1999号",
            "name": "福莱特集团",
            "Latitude": "30.735546",
            "n_car": "11",
            "UID": "3055"
        },
        {
            "Longitude": "120.689239",
            "MID": "4649",
            "address": "浙江省嘉兴市秀洲区九里路598号",
            "name": "秀洲区妇幼保健院",
            "Latitude": "30.778203",
            "n_car": "5",
            "UID": "3056"
        },
        {
            "Longitude": "120.706283",
            "MID": "4684",
            "address": "浙江省嘉兴市秀洲区洪兴路1765号",
            "name": "秀洲区政府东",
            "Latitude": "30.767418",
            "n_car": "16",
            "UID": "3057"
        },
        {
            "Longitude": "120.703312",
            "MID": "4629",
            "address": "浙江省嘉兴市秀洲区洪兴路1765",
            "name": "秀洲区政府西",
            "Latitude": "30.767041",
            "n_car": "18",
            "UID": "3058"
        },
        {
            "Longitude": "120.766959",
            "MID": "5348",
            "address": "浙江省嘉兴市经开区塘汇路548号",
            "name": "万和大厦",
            "Latitude": "30.789172",
            "n_car": "5",
            "UID": "3059"
        },
        {
            "Longitude": "120.786668",
            "MID": "5586",
            "address": "浙江省嘉兴市经开区鸣羊路176号",
            "name": "兴汇大厦",
            "Latitude": "30.78694",
            "n_car": "4",
            "UID": "3060"
        },
        {
            "Longitude": "120.725354",
            "MID": "5539",
            "address": "浙江省嘉兴市经开区城南路1539号",
            "name": "创业大厦",
            "Latitude": "30.734877",
            "n_car": "4",
            "UID": "3061"
        },
        {
            "Longitude": "120.763893",
            "MID": "4628",
            "address": "浙江省嘉兴市经开区中环北路1856号",
            "name": "北斗创客空间",
            "Latitude": "30.789978",
            "n_car": "4",
            "UID": "3062"
        },
        {
            "Longitude": "120.779166",
            "MID": "5582",
            "address": "浙江省嘉兴市经开区周安路399号",
            "name": "嘉兴中安市场",
            "Latitude": "30.782607",
            "n_car": "5",
            "UID": "3063"
        },
        {
            "Longitude": "120.798128",
            "MID": "4866",
            "address": "浙江省嘉兴市经开区黎明村双溪路",
            "name": "嘉兴南站",
            "Latitude": "30.694352",
            "n_car": "22",
            "UID": "3064"
        },
        {
            "Longitude": "120.757449",
            "MID": "5528",
            "address": "浙江省嘉兴市经开区南湖大道902号",
            "name": "嘉兴市交通投资集团",
            "Latitude": "30.724642",
            "n_car": "6",
            "UID": "3065"
        },
        {
            "Longitude": "120.707749",
            "MID": "4492",
            "address": "浙江省嘉兴市经开区开禧路46号",
            "name": "嘉兴市公路路政管理支队",
            "Latitude": "30.716984",
            "n_car": "9",
            "UID": "3066"
        },
        {
            "Longitude": "120.724275",
            "MID": "5325",
            "address": "浙江省嘉兴市经开区友谊街471号",
            "name": "嘉兴市科技馆",
            "Latitude": "30.771405",
            "n_car": "6",
            "UID": "3067"
        },
        {
            "Longitude": "120.786112",
            "MID": "4860",
            "address": "浙江省嘉兴市经开区双溪路1798号",
            "name": "嘉兴教育学院",
            "Latitude": "30.737659",
            "n_car": "20",
            "UID": "3068"
        },
        {
            "Longitude": "120.714664",
            "MID": "5585",
            "address": "浙江省嘉兴市经开区昌盛南路36号",
            "name": "嘉兴智慧产业创新园",
            "Latitude": "30.729358",
            "n_car": "10",
            "UID": "3069"
        },
        {
            "Longitude": "120.74146",
            "MID": "4407",
            "address": "浙江省嘉兴市经开区中环北路688号",
            "name": "嘉兴汽车北站",
            "Latitude": "30.788057",
            "n_car": "4",
            "UID": "3070"
        },
        {
            "Longitude": "120.80673",
            "MID": "5408",
            "address": "浙江省嘉兴市经开区中环南路999号",
            "name": "嘉兴汽车商贸园",
            "Latitude": "30.737032",
            "n_car": "3",
            "UID": "3071"
        },
        {
            "Longitude": "120.703093",
            "MID": "4486",
            "address": "浙江省嘉兴市经开区万国路2098号",
            "name": "嘉兴汽车客运中心",
            "Latitude": "30.712971",
            "n_car": "4",
            "UID": "3072"
        },
        {
            "Longitude": "120.707892",
            "MID": "6277",
            "address": "浙江省嘉兴市经开区文博路549号",
            "name": "嘉兴秀水专修学院",
            "Latitude": "30.747721",
            "n_car": "5",
            "UID": "3073"
        },
        {
            "Longitude": "120.706516",
            "MID": "5817",
            "address": "浙江省嘉兴市文昌路与梁林路交汇处南",
            "name": "嘉兴秀水高级中学",
            "Latitude": "30.751037",
            "n_car": "6",
            "UID": "3074"
        },
        {
            "Longitude": "120.720945",
            "MID": "5584",
            "address": "浙江省嘉兴市经开区东升西路1号",
            "name": "嘉北街道办事处",
            "Latitude": "30.777908",
            "n_car": "8",
            "UID": "3075"
        },
        {
            "Longitude": "120.71605",
            "MID": "5135",
            "address": "浙江省嘉兴市振兴路484号",
            "name": "嘉北街道卫生服务中心",
            "Latitude": "30.788565",
            "n_car": "3",
            "UID": "3076"
        },
        {
            "Longitude": "120.67052",
            "MID": "4431",
            "address": "浙江省嘉兴市经开区桐乡大道2600号",
            "name": "嘉心菜有机农业示范园",
            "Latitude": "30.726702",
            "n_car": "9",
            "UID": "3077"
        },
        {
            "Longitude": "120.778257",
            "MID": "5935",
            "address": "浙江省嘉兴市经开区昌盛东路1666号",
            "name": "圆通古寺",
            "Latitude": "30.802898",
            "n_car": "5",
            "UID": "3078"
        },
        {
            "Longitude": "120.724933",
            "MID": "5984",
            "address": "浙江省嘉兴市经开区万历路138号",
            "name": "城南街道卫生服务中心",
            "Latitude": "30.741824",
            "n_car": "4",
            "UID": "3079"
        },
        {
            "Longitude": "120.773121",
            "MID": "5583",
            "address": "浙江省嘉兴市经开区茶园路95号",
            "name": "塘汇街道办事处",
            "Latitude": "30.79392",
            "n_car": "5",
            "UID": "3080"
        },
        {
            "Longitude": "120.779178",
            "MID": "5983",
            "address": "浙江省嘉兴市经开区塘汇路1262号",
            "name": "塘汇街道卫生服务中心",
            "Latitude": "30.796317",
            "n_car": "3",
            "UID": "3081"
        },
        {
            "Longitude": "120.712686",
            "MID": "5739",
            "address": "浙江省嘉兴市经开区洪兴西路1399号",
            "name": "大洋洲假日酒店",
            "Latitude": "30.766582",
            "n_car": "5",
            "UID": "3082"
        },
        {
            "Longitude": "120.727525",
            "MID": "4809",
            "address": "浙江省嘉兴市经开区创新路与展望路交叉口南150米",
            "name": "姚家荡公园",
            "Latitude": "30.728399",
            "n_car": "5",
            "UID": "3083"
        },
        {
            "Longitude": "120.715455",
            "MID": "5875",
            "address": "浙江省嘉兴市经开区振兴路777号",
            "name": "振兴公寓",
            "Latitude": "30.791068",
            "n_car": "4",
            "UID": "3084"
        },
        {
            "Longitude": "120.754573",
            "MID": "4869",
            "address": "浙江省嘉兴市经开区南湖大道与长水路交叉口",
            "name": "晶晖广场",
            "Latitude": "30.722857",
            "n_car": "8",
            "UID": "3085"
        },
        {
            "Longitude": "120.727049",
            "MID": "5418",
            "address": "浙江省嘉兴市经开区洪波路友谊街交叉口",
            "name": "洪波公园",
            "Latitude": "30.772874",
            "n_car": "5",
            "UID": "3086"
        },
        {
            "Longitude": "120.788628",
            "MID": "5355",
            "address": "浙江省嘉兴市经开区周安路1059号",
            "name": "浙江嘉信医药公司",
            "Latitude": "30.788562",
            "n_car": "8",
            "UID": "3087"
        },
        {
            "Longitude": "120.724262",
            "MID": "5773",
            "address": "浙江省嘉兴市经开区凯旋路217号",
            "name": "玫瑰湾大酒店",
            "Latitude": "30.764595",
            "n_car": "5",
            "UID": "3088"
        },
        {
            "Longitude": "120.778536",
            "MID": "4956",
            "address": "浙江省嘉兴市经开区商务大道1310",
            "name": "石堰农贸市场",
            "Latitude": "30.717089",
            "n_car": "4",
            "UID": "3089"
        },
        {
            "Longitude": "120.731061",
            "MID": "5934",
            "address": "浙江省嘉兴市经开区禾平街358号",
            "name": "禾平街标准厂房",
            "Latitude": "30.799258",
            "n_car": "6",
            "UID": "3090"
        },
        {
            "Longitude": "120.778702",
            "MID": "5581",
            "address": "浙江省嘉兴市经开区和风路1229号",
            "name": "禾新农贸市场",
            "Latitude": "30.797874",
            "n_car": "5",
            "UID": "3091"
        },
        {
            "Longitude": "120.716813",
            "MID": "6253",
            "address": "浙江省嘉兴市经开区开禧路与天带桥路",
            "name": "禾源农贸市场",
            "Latitude": "30.709589",
            "n_car": "5",
            "UID": "3092"
        },
        {
            "Longitude": "120.731652",
            "MID": "5536",
            "address": "浙江省嘉兴市经开区由拳路309号",
            "name": "紫御大厦",
            "Latitude": "30.734792",
            "n_car": "4",
            "UID": "3093"
        },
        {
            "Longitude": "120.749452",
            "MID": "5417",
            "address": "浙江省嘉兴市经开区新气象路618号",
            "name": "美厨大酒店",
            "Latitude": "30.740097",
            "n_car": "9",
            "UID": "3094"
        },
        {
            "Longitude": "120.752456",
            "MID": "4890",
            "address": "浙江省嘉兴市经开区区长水街道办事处门口公园停车场",
            "name": "长水街道办事处",
            "Latitude": "30.729797",
            "n_car": "8",
            "UID": "3095"
        },
        {
            "Longitude": "120.735389",
            "MID": "5210",
            "address": "浙江省嘉兴市云海路107号",
            "name": "阳海社区便民服务中心",
            "Latitude": "30.797525",
            "n_car": "3",
            "UID": "3096"
        },
        {
            "Longitude": "120.748235",
            "MID": "5541",
            "address": "浙江省嘉兴市经开区新气象路与马塘路交叉口",
            "name": "隆兴农贸市场",
            "Latitude": "30.720113",
            "n_car": "4",
            "UID": "3097"
        }
    ]
}